{"type":"FeatureCollection","features":[{"type":"Feature","properties":{"Name":"Casiguran Distric Hospitat","amenity":"hospital"},"geometry":{"type":"Point","coordinates":[122.117,16.274696]}},{"type":"Feature","properties":{"Name":"Partido District Hospital","amenity":"hospital"},"geometry":{"type":"Point","coordinates":[123.519,13.700784]}},{"type":"Feature","properties":{"Name":"Naga Imaging Center Cooperative Doctors' Hospital","amenity":"hospital"},"geometry":{"type":"Point","coordinates":[123.193,13.616782]}},{"type":"Feature","properties":{"Name":"Naga City Hospital","amenity":"hospital"},"geometry":{"type":"Point","coordinates":[123.19,13.629192]}},{"type":"Feature","properties":{"Name":"St. John Hospital","amenity":"hospital"},"geometry":{"type":"Point","coordinates":[123.19,13.622658]}},{"type":"Feature","properties":{"Name":"St. John Hospital","amenity":"hospital"},"geometry":{"type":"Point","coordinates":[123.191,13.622698]}},{"type":"Feature","properties":{"Name":"Dr. Nilo Roa Memorial Hospital","amenity":"hospital"},"geometry":{"type":"Point","coordinates":[123.187,13.626115]}},{"type":"Feature","properties":{"Name":"Dr. Nilo Roa Memorial Foundation Hospital","amenity":"hospital"},"geometry":{"type":"Point","coordinates":[123.187,13.626186]}},{"type":"Feature","properties":{"Name":"Bicol Medical Center","amenity":"hospital"},"geometry":{"type":"Point","coordinates":[123.199,13.622872]}},{"type":"Feature","properties":{"Name":"Mother Seton Hospital","amenity":"hospital"},"geometry":{"type":"Point","coordinates":[123.197,13.61857]}},{"type":"Feature","properties":{"Name":"","amenity":"hospital"},"geometry":{"type":"Point","coordinates":[123.192,13.61884]}},{"type":"Feature","properties":{"Name":"Plaza Medica","amenity":"hospital"},"geometry":{"type":"Point","coordinates":[123.194,13.621069]}},{"type":"Feature","properties":{"Name":"","amenity":"hospital"},"geometry":{"type":"Point","coordinates":[123.194,13.621096]}},{"type":"Feature","properties":{"Name":"Bicol Region General Hospital and Geriatric Medical Center","amenity":"hospital"},"geometry":{"type":"Point","coordinates":[123.031,13.766089]}},{"type":"Feature","properties":{"Name":"Bicol Region General Hospital and Geriatric Medical Center","amenity":"hospital"},"geometry":{"type":"Point","coordinates":[123.027,13.763067]}},{"type":"Feature","properties":{"Name":"Rinconada Medical Center","amenity":"hospital"},"geometry":{"type":"Point","coordinates":[123.394,13.417143]}},{"type":"Feature","properties":{"Name":"Santa Maria Josefa Hospital","amenity":"hospital"},"geometry":{"type":"Point","coordinates":[123.406,13.4132]}},{"type":"Feature","properties":{"Name":"Our Lady Mediatrix Hospital","amenity":"hospital"},"geometry":{"type":"Point","coordinates":[123.405,13.420239]}},{"type":"Feature","properties":{"Name":"Lourdes Hospital","amenity":"hospital"},"geometry":{"type":"Point","coordinates":[123.414,13.421735]}},{"type":"Feature","properties":{"Name":"Iriga Maternal Hospital","amenity":"hospital"},"geometry":{"type":"Point","coordinates":[123.413,13.420743]}},{"type":"Feature","properties":{"Name":"Dr. Robosa Hospital","amenity":"hospital"},"geometry":{"type":"Point","coordinates":[123.364,13.4579]}},{"type":"Feature","properties":{"Name":"St. Jude Clinic & Hosptal","amenity":"hospital"},"geometry":{"type":"Point","coordinates":[123.364,13.458191]}},{"type":"Feature","properties":{"Name":"Pioduran District Hospital","amenity":"hospital"},"geometry":{"type":"Point","coordinates":[123.446,13.028744]}},{"type":"Feature","properties":{"Name":"Ziga Memorial District Hospital","amenity":"hospital"},"geometry":{"type":"Point","coordinates":[123.722,13.357867]}},{"type":"Feature","properties":{"Name":"Jaime B. Berces Memorial Hospital","amenity":"hospital"},"geometry":{"type":"Point","coordinates":[123.726,13.360371]}},{"type":"Feature","properties":{"Name":"Tabaco College Hospital","amenity":"hospital"},"geometry":{"type":"Point","coordinates":[123.726,13.356573]}},{"type":"Feature","properties":{"Name":"Cabredo Hospital","amenity":"hospital"},"geometry":{"type":"Point","coordinates":[123.73,13.356387]}},{"type":"Feature","properties":{"Name":"Dr. Amando D. Cope Memorial Hospital","amenity":"hospital"},"geometry":{"type":"Point","coordinates":[123.73,13.360974]}},{"type":"Feature","properties":{"Name":"Rico Hospital","amenity":"hospital"},"geometry":{"type":"Point","coordinates":[123.731,13.361952]}},{"type":"Feature","properties":{"Name":"RH Center","amenity":"hospital"},"geometry":{"type":"Point","coordinates":[123.736,13.318782]}},{"type":"Feature","properties":{"Name":"Abandoned Andres-Maria Rios Memorial","amenity":"hospital"},"geometry":{"type":"Point","coordinates":[123.736,13.33]}},{"type":"Feature","properties":{"Name":"Albay Doctor's Hospital - Daraga","amenity":"hospital"},"geometry":{"type":"Point","coordinates":[123.711,13.154036]}},{"type":"Feature","properties":{"Name":"Bicol Regional Training and Teaching Hospital","amenity":"hospital"},"geometry":{"type":"Point","coordinates":[123.724,13.146512]}},{"type":"Feature","properties":{"Name":"Bicol Regional Training and Teaching Hospital","amenity":"hospital"},"geometry":{"type":"Point","coordinates":[123.724,13.146816]}},{"type":"Feature","properties":{"Name":"Ago General Hospital","amenity":"hospital"},"geometry":{"type":"Point","coordinates":[123.731,13.139595]}},{"type":"Feature","properties":{"Name":"University of Santo Tomas - Legazpi Hospital","amenity":"hospital"},"geometry":{"type":"Point","coordinates":[123.735,13.146386]}},{"type":"Feature","properties":{"Name":"Legazpi City Health Department Office","amenity":"hospital"},"geometry":{"type":"Point","coordinates":[123.735,13.138341]}},{"type":"Feature","properties":{"Name":"Estevez Memorial Hospital","amenity":"hospital"},"geometry":{"type":"Point","coordinates":[123.741,13.138156]}},{"type":"Feature","properties":{"Name":"Sta Teresita Hospital","amenity":"hospital"},"geometry":{"type":"Point","coordinates":[123.743,13.138646]}},{"type":"Feature","properties":{"Name":"Garcia General Hospital","amenity":"hospital"},"geometry":{"type":"Point","coordinates":[123.602,13.188705]}},{"type":"Feature","properties":{"Name":"Josefina Belmonte Duran Memorial Hospital","amenity":"hospital"},"geometry":{"type":"Point","coordinates":[123.556,13.239537]}},{"type":"Feature","properties":{"Name":"Manito District Hospital","amenity":"hospital"},"geometry":{"type":"Point","coordinates":[123.871,13.121679]}},{"type":"Feature","properties":{"Name":"Vicente L. Peralta Memorial Hospital","amenity":"hospital"},"geometry":{"type":"Point","coordinates":[123.796,12.980216]}},{"type":"Feature","properties":{"Name":"","amenity":"hospital"},"geometry":{"type":"Point","coordinates":[123.808,12.980041]}},{"type":"Feature","properties":{"Name":"","amenity":"hospital"},"geometry":{"type":"Point","coordinates":[123.729,12.982417]}},{"type":"Feature","properties":{"Name":"","amenity":"hospital"},"geometry":{"type":"Point","coordinates":[123.73,12.977033]}},{"type":"Feature","properties":{"Name":"Sorsogon Medical Mission Group Hospital and Health Services Cooperative","amenity":"hospital"},"geometry":{"type":"Point","coordinates":[123.987,12.978401]}},{"type":"Feature","properties":{"Name":"Dr. Fernando B. Duran, Sr. Memorial Hospital","amenity":"hospital"},"geometry":{"type":"Point","coordinates":[123.988,12.982914]}},{"type":"Feature","properties":{"Name":"Tagkawayan Hospital","amenity":"hospital"},"geometry":{"type":"Point","coordinates":[122.543,13.966327]}},{"type":"Feature","properties":{"Name":"","amenity":"hospital"},"geometry":{"type":"Point","coordinates":[123.259,14.022969]}},{"type":"Feature","properties":{"Name":"Talobatib Public Hospital","amenity":"hospital"},"geometry":{"type":"Point","coordinates":[122.785,14.184184]}},{"type":"Feature","properties":{"Name":"Rural Health Office","amenity":"hospital"},"geometry":{"type":"Point","coordinates":[122.886,14.046069]}},{"type":"Feature","properties":{"Name":"Saint Francis Parochial School","amenity":"hospital"},"geometry":{"type":"Point","coordinates":[122.923,14.134077]}},{"type":"Feature","properties":{"Name":"Santisima Trinidad Hospital","amenity":"hospital"},"geometry":{"type":"Point","coordinates":[122.949,14.106362]}},{"type":"Feature","properties":{"Name":"Our Lady Of Lourdes Hospital","amenity":"hospital"},"geometry":{"type":"Point","coordinates":[122.947,14.121016]}},{"type":"Feature","properties":{"Name":"Santo Niño Hospital","amenity":"hospital"},"geometry":{"type":"Point","coordinates":[122.964,14.115422]}},{"type":"Feature","properties":{"Name":"Camarines Norte Provincial Hospital","amenity":"hospital"},"geometry":{"type":"Point","coordinates":[122.957,14.121354]}},{"type":"Feature","properties":{"Name":"Leon Hernandez Hospital","amenity":"hospital"},"geometry":{"type":"Point","coordinates":[122.957,14.114599]}},{"type":"Feature","properties":{"Name":"Belarmino Hospital","amenity":"hospital"},"geometry":{"type":"Point","coordinates":[123.858,12.193085]}},{"type":"Feature","properties":{"Name":"Cataingan Public Hospital","amenity":"hospital"},"geometry":{"type":"Point","coordinates":[123.99,12.007882]}},{"type":"Feature","properties":{"Name":"","amenity":"hospital"},"geometry":{"type":"Point","coordinates":[124.283,12.496857]}},{"type":"Feature","properties":{"Name":"","amenity":"hospital"},"geometry":{"type":"Point","coordinates":[124.178,12.425776]}},{"type":"Feature","properties":{"Name":"Barangay 5 Health Station","amenity":"hospital"},"geometry":{"type":"Point","coordinates":[124.169,12.447503]}},{"type":"Feature","properties":{"Name":"Barangay 5 Health Station","amenity":"hospital"},"geometry":{"type":"Point","coordinates":[124.169,12.447557]}},{"type":"Feature","properties":{"Name":"Masbate Doctors Hospital","amenity":"hospital"},"geometry":{"type":"Point","coordinates":[123.624,12.368195]}},{"type":"Feature","properties":{"Name":"Masbate Provincial Hospital","amenity":"hospital"},"geometry":{"type":"Point","coordinates":[123.624,12.3723]}},{"type":"Feature","properties":{"Name":"Ticao District Hospital","amenity":"hospital"},"geometry":{"type":"Point","coordinates":[123.731,12.563834]}},{"type":"Feature","properties":{"Name":"Guysayko General Hospital","amenity":"hospital"},"geometry":{"type":"Point","coordinates":[124.135,12.749763]}},{"type":"Feature","properties":{"Name":"Bulusan Family Clinic","amenity":"hospital"},"geometry":{"type":"Point","coordinates":[124.136,12.749982]}},{"type":"Feature","properties":{"Name":"Irosin District Hospital","amenity":"hospital"},"geometry":{"type":"Point","coordinates":[124.029,12.709754]}},{"type":"Feature","properties":{"Name":"","amenity":"hospital"},"geometry":{"type":"Point","coordinates":[124.049,12.704703]}},{"type":"Feature","properties":{"Name":"Salvador Encinas District Hospital","amenity":"hospital"},"geometry":{"type":"Point","coordinates":[124.12,12.922268]}},{"type":"Feature","properties":{"Name":"Prieto Diaz Municipal Hospital","amenity":"hospital"},"geometry":{"type":"Point","coordinates":[124.191,13.044542]}},{"type":"Feature","properties":{"Name":"Calbayog District Hospital","amenity":"hospital"},"geometry":{"type":"Point","coordinates":[124.599,12.06846]}},{"type":"Feature","properties":{"Name":"OLPHI Hospital","amenity":"hospital"},"geometry":{"type":"Point","coordinates":[124.596,12.068595]}},{"type":"Feature","properties":{"Name":"Seventh Day Adventist Sanitarium Hospital","amenity":"hospital"},"geometry":{"type":"Point","coordinates":[124.566,12.068186]}},{"type":"Feature","properties":{"Name":"St. Camillus Hospital","amenity":"hospital"},"geometry":{"type":"Point","coordinates":[124.547,12.07786]}},{"type":"Feature","properties":{"Name":"Biliran Provincial Hospital","amenity":"hospital"},"geometry":{"type":"Point","coordinates":[124.397,11.556837]}},{"type":"Feature","properties":{"Name":"Tabango Community Hospital","amenity":"hospital"},"geometry":{"type":"Point","coordinates":[124.377,11.309829]}},{"type":"Feature","properties":{"Name":"Villaba town Hospital","amenity":"hospital"},"geometry":{"type":"Point","coordinates":[124.393,11.216634]}},{"type":"Feature","properties":{"Name":"Leoncio Uy Memorial Hospital","amenity":"hospital"},"geometry":{"type":"Point","coordinates":[124.641,12.49754]}},{"type":"Feature","properties":{"Name":"Northern Samar Provincial Hospital","amenity":"hospital"},"geometry":{"type":"Point","coordinates":[124.637,12.50017]}},{"type":"Feature","properties":{"Name":"Caramoan Municipal Hospital","amenity":"hospital"},"geometry":{"type":"Point","coordinates":[123.863,13.776312]}},{"type":"Feature","properties":{"Name":"Gigmoto District Hospital Grounds","amenity":"hospital"},"geometry":{"type":"Point","coordinates":[124.39,13.778978]}},{"type":"Feature","properties":{"Name":"Bato Maternity and Children's Hospital","amenity":"hospital"},"geometry":{"type":"Point","coordinates":[124.303,13.608157]}},{"type":"Feature","properties":{"Name":"Guerrero Medical Clinic","amenity":"hospital"},"geometry":{"type":"Point","coordinates":[124.232,13.581716]}},{"type":"Feature","properties":{"Name":"Eastern Bicol Medical Center","amenity":"hospital"},"geometry":{"type":"Point","coordinates":[124.22,13.581081]}},{"type":"Feature","properties":{"Name":"Dr. A.P Zantua Memorial Hospital","amenity":"hospital"},"geometry":{"type":"Point","coordinates":[124.24,13.586621]}},{"type":"Feature","properties":{"Name":"Immaculate Heart Of Mary Hospital","amenity":"hospital"},"geometry":{"type":"Point","coordinates":[124.237,13.584353]}},{"type":"Feature","properties":{"Name":"Lubang District Hospital","amenity":"hospital"},"geometry":{"type":"Point","coordinates":[120.108,13.853637]}},{"type":"Feature","properties":{"Name":"Hernandez General Hospital","amenity":"hospital"},"geometry":{"type":"Point","coordinates":[120.989,14.653471]}},{"type":"Feature","properties":{"Name":"Ronn Carmel Hospital","amenity":"hospital"},"geometry":{"type":"Point","coordinates":[120.992,14.657921]}},{"type":"Feature","properties":{"Name":"John-paul Hospital","amenity":"hospital"},"geometry":{"type":"Point","coordinates":[120.992,14.659791]}},{"type":"Feature","properties":{"Name":"Manila Central University Hospital","amenity":"hospital"},"geometry":{"type":"Point","coordinates":[120.987,14.657813]}},{"type":"Feature","properties":{"Name":"Manila Central University Hospital","amenity":"hospital"},"geometry":{"type":"Point","coordinates":[120.987,14.657694]}},{"type":"Feature","properties":{"Name":"Caloocan City Medical Center South","amenity":"hospital"},"geometry":{"type":"Point","coordinates":[120.974,14.648348]}},{"type":"Feature","properties":{"Name":"St Joseph Clinic","amenity":"hospital"},"geometry":{"type":"Point","coordinates":[120.984,14.652969]}},{"type":"Feature","properties":{"Name":"Our Lady Of Grace Hospital","amenity":"hospital"},"geometry":{"type":"Point","coordinates":[120.982,14.64872]}},{"type":"Feature","properties":{"Name":"Hernandez General Hospital","amenity":"hospital"},"geometry":{"type":"Point","coordinates":[120.984,14.646813]}},{"type":"Feature","properties":{"Name":"Centralle Medical","amenity":"hospital"},"geometry":{"type":"Point","coordinates":[120.985,14.645991]}},{"type":"Feature","properties":{"Name":"PNR General Hospital","amenity":"hospital"},"geometry":{"type":"Point","coordinates":[120.978,14.658764]}},{"type":"Feature","properties":{"Name":"","amenity":"hospital"},"geometry":{"type":"Point","coordinates":[120.978,14.659515]}},{"type":"Feature","properties":{"Name":"","amenity":"hospital"},"geometry":{"type":"Point","coordinates":[120.99,14.68521]}},{"type":"Feature","properties":{"Name":"Fatima University Medical Center","amenity":"hospital"},"geometry":{"type":"Point","coordinates":[120.98,14.678057]}},{"type":"Feature","properties":{"Name":"Calalang General Hospital","amenity":"hospital"},"geometry":{"type":"Point","coordinates":[120.982,14.672597]}},{"type":"Feature","properties":{"Name":"Sanctissimo Rosario General Hospital","amenity":"hospital"},"geometry":{"type":"Point","coordinates":[120.984,14.675112]}},{"type":"Feature","properties":{"Name":"Perlas Polyclinic","amenity":"hospital"},"geometry":{"type":"Point","coordinates":[120.984,14.675275]}},{"type":"Feature","properties":{"Name":"Philippine Orthopedic Hospital","amenity":"hospital"},"geometry":{"type":"Point","coordinates":[121.003,14.627764]}},{"type":"Feature","properties":{"Name":"Mary Chiles General Hospital","amenity":"hospital"},"geometry":{"type":"Point","coordinates":[120.99,14.603188]}},{"type":"Feature","properties":{"Name":"St. Jude Hospital and Medical Center","amenity":"hospital"},"geometry":{"type":"Point","coordinates":[120.989,14.6158]}},{"type":"Feature","properties":{"Name":"Perpetual Succor Maternity Hospital","amenity":"hospital"},"geometry":{"type":"Point","coordinates":[120.992,14.6081]}},{"type":"Feature","properties":{"Name":"Perpetual Help Hospital","amenity":"hospital"},"geometry":{"type":"Point","coordinates":[120.988,14.613384]}},{"type":"Feature","properties":{"Name":"UST Hospital Clinical Division","amenity":"hospital"},"geometry":{"type":"Point","coordinates":[120.99,14.612248]}},{"type":"Feature","properties":{"Name":"UST Hospital","amenity":"hospital"},"geometry":{"type":"Point","coordinates":[120.99,14.61078]}},{"type":"Feature","properties":{"Name":"Ambulatory CPU Lingap Bata – UST Medical Social Service Dapartment","amenity":"hospital"},"geometry":{"type":"Point","coordinates":[120.99,14.611503]}},{"type":"Feature","properties":{"Name":"University of Santo Tomas Hospital","amenity":"hospital"},"geometry":{"type":"Point","coordinates":[120.99,14.611287]}},{"type":"Feature","properties":{"Name":"UST Health Service","amenity":"hospital"},"geometry":{"type":"Point","coordinates":[120.99,14.610387]}},{"type":"Feature","properties":{"Name":"Ambulatory CPU Lingap Bata – UST Medical Social Service Dapartment","amenity":"hospital"},"geometry":{"type":"Point","coordinates":[120.99,14.611015]}},{"type":"Feature","properties":{"Name":"United Doctors Medical Center","amenity":"hospital"},"geometry":{"type":"Point","coordinates":[121.002,14.617185]}},{"type":"Feature","properties":{"Name":"Medocare Health Systems","amenity":"hospital"},"geometry":{"type":"Point","coordinates":[121.006,14.621053]}},{"type":"Feature","properties":{"Name":"Fe Del Mundo Medical Center","amenity":"hospital"},"geometry":{"type":"Point","coordinates":[121.009,14.620603]}},{"type":"Feature","properties":{"Name":"Metropolitan Medical Center","amenity":"hospital"},"geometry":{"type":"Point","coordinates":[120.978,14.609395]}},{"type":"Feature","properties":{"Name":"Clinica Arellano","amenity":"hospital"},"geometry":{"type":"Point","coordinates":[120.979,14.605234]}},{"type":"Feature","properties":{"Name":"Jose Fabella Memorial Hospital","amenity":"hospital"},"geometry":{"type":"Point","coordinates":[120.984,14.606184]}},{"type":"Feature","properties":{"Name":"Jose R. Reyes Memorial Medical Center","amenity":"hospital"},"geometry":{"type":"Point","coordinates":[120.982,14.614213]}},{"type":"Feature","properties":{"Name":"San Lazaro Hospital","amenity":"hospital"},"geometry":{"type":"Point","coordinates":[120.981,14.613897]}},{"type":"Feature","properties":{"Name":"Mt. Carmel Maternity And Children's Clinic","amenity":"hospital"},"geometry":{"type":"Point","coordinates":[120.984,14.62762]}},{"type":"Feature","properties":{"Name":"Chinese General Hospital and Medical Center","amenity":"hospital"},"geometry":{"type":"Point","coordinates":[120.988,14.626124]}},{"type":"Feature","properties":{"Name":"Ospital ng Tondo","amenity":"hospital"},"geometry":{"type":"Point","coordinates":[120.978,14.626001]}},{"type":"Feature","properties":{"Name":"Ospital ng Tondo","amenity":"hospital"},"geometry":{"type":"Point","coordinates":[120.978,14.625988]}},{"type":"Feature","properties":{"Name":"Amisola Maternity Hospital","amenity":"hospital"},"geometry":{"type":"Point","coordinates":[120.978,14.632853]}},{"type":"Feature","properties":{"Name":"Martinez Memorial Hospital","amenity":"hospital"},"geometry":{"type":"Point","coordinates":[120.976,14.638581]}},{"type":"Feature","properties":{"Name":"De Ocampo Memorial Medical Center","amenity":"hospital"},"geometry":{"type":"Point","coordinates":[121,14.599831]}},{"type":"Feature","properties":{"Name":"Quezon Institute","amenity":"hospital"},"geometry":{"type":"Point","coordinates":[121.013,14.617723]}},{"type":"Feature","properties":{"Name":"Ospital ng Sampaloc","amenity":"hospital"},"geometry":{"type":"Point","coordinates":[120.997,14.607817]}},{"type":"Feature","properties":{"Name":"","amenity":"hospital"},"geometry":{"type":"Point","coordinates":[121.004,14.608844]}},{"type":"Feature","properties":{"Name":"St. Francis General Hospital","amenity":"hospital"},"geometry":{"type":"Point","coordinates":[121.004,14.608941]}},{"type":"Feature","properties":{"Name":"Mary Johnston Hospital","amenity":"hospital"},"geometry":{"type":"Point","coordinates":[120.966,14.609039]}},{"type":"Feature","properties":{"Name":"Justice Jose Abad Santos Mother and Child Hospital","amenity":"hospital"},"geometry":{"type":"Point","coordinates":[120.972,14.597447]}},{"type":"Feature","properties":{"Name":"Gat Andres Bonifacio Memorial Medical Center","amenity":"hospital"},"geometry":{"type":"Point","coordinates":[120.965,14.601093]}},{"type":"Feature","properties":{"Name":"St. Agnes General Hospital","amenity":"hospital"},"geometry":{"type":"Point","coordinates":[121.017,14.647172]}},{"type":"Feature","properties":{"Name":"National Kidney and Transplant Institute","amenity":"hospital"},"geometry":{"type":"Point","coordinates":[121.027,14.663962]}},{"type":"Feature","properties":{"Name":"J. P. Sioson General Hospital And Colleges","amenity":"hospital"},"geometry":{"type":"Point","coordinates":[121.025,14.659923]}},{"type":"Feature","properties":{"Name":"Dr. Montano G. Ramos General Hospital","amenity":"hospital"},"geometry":{"type":"Point","coordinates":[121.024,14.659541]}},{"type":"Feature","properties":{"Name":"Dr. Montano Ramos Hospital","amenity":"hospital"},"geometry":{"type":"Point","coordinates":[121.032,14.669751]}},{"type":"Feature","properties":{"Name":"Metro North Medical Center and Hospital","amenity":"hospital"},"geometry":{"type":"Point","coordinates":[121.034,14.668914]}},{"type":"Feature","properties":{"Name":"","amenity":"hospital"},"geometry":{"type":"Point","coordinates":[121.019,14.661699]}},{"type":"Feature","properties":{"Name":"Quezon City General Hospital","amenity":"hospital"},"geometry":{"type":"Point","coordinates":[121.018,14.661793]}},{"type":"Feature","properties":{"Name":"","amenity":"hospital"},"geometry":{"type":"Point","coordinates":[121.018,14.662012]}},{"type":"Feature","properties":{"Name":"Quezon City General Hospital","amenity":"hospital"},"geometry":{"type":"Point","coordinates":[121.018,14.661142]}},{"type":"Feature","properties":{"Name":"Pascual General Hospital","amenity":"hospital"},"geometry":{"type":"Point","coordinates":[121.009,14.667043]}},{"type":"Feature","properties":{"Name":"Baesa Advent Polyclinic And General Hospital","amenity":"hospital"},"geometry":{"type":"Point","coordinates":[121.005,14.676741]}},{"type":"Feature","properties":{"Name":"Providence Hospital","amenity":"hospital"},"geometry":{"type":"Point","coordinates":[121.032,14.641225]}},{"type":"Feature","properties":{"Name":"Capitol Medical Center","amenity":"hospital"},"geometry":{"type":"Point","coordinates":[121.023,14.634329]}},{"type":"Feature","properties":{"Name":"Philippine Medical Tests System","amenity":"hospital"},"geometry":{"type":"Point","coordinates":[121.025,14.63588]}},{"type":"Feature","properties":{"Name":"St. Luke's Medical Center","amenity":"hospital"},"geometry":{"type":"Point","coordinates":[121.023,14.622603]}},{"type":"Feature","properties":{"Name":"De Los Santos Medical Center","amenity":"hospital"},"geometry":{"type":"Point","coordinates":[121.018,14.620275]}},{"type":"Feature","properties":{"Name":"St. Therese Dialysis and Laboratory Clinic","amenity":"hospital"},"geometry":{"type":"Point","coordinates":[121.045,14.658323]}},{"type":"Feature","properties":{"Name":"Veterans Memorial Medical Center","amenity":"hospital"},"geometry":{"type":"Point","coordinates":[121.04,14.656323]}},{"type":"Feature","properties":{"Name":"Veterans Memorial Medical Center","amenity":"hospital"},"geometry":{"type":"Point","coordinates":[121.04,14.656308]}},{"type":"Feature","properties":{"Name":"Philippine Children's Medical Center","amenity":"hospital"},"geometry":{"type":"Point","coordinates":[121.041,14.647703]}},{"type":"Feature","properties":{"Name":"Jose Fabella Memorial Hospital Annex","amenity":"hospital"},"geometry":{"type":"Point","coordinates":[121.044,14.646643]}},{"type":"Feature","properties":{"Name":"Lung Center of the Philippines","amenity":"hospital"},"geometry":{"type":"Point","coordinates":[121.046,14.647519]}},{"type":"Feature","properties":{"Name":"National Kidney and Transplant Institute","amenity":"hospital"},"geometry":{"type":"Point","coordinates":[121.047,14.64727]}},{"type":"Feature","properties":{"Name":"National Kidney and Transplant Institute","amenity":"hospital"},"geometry":{"type":"Point","coordinates":[121.047,14.646759]}},{"type":"Feature","properties":{"Name":"St. John Hospital","amenity":"hospital"},"geometry":{"type":"Point","coordinates":[120.966,14.69316]}},{"type":"Feature","properties":{"Name":"A. P. Cruz Community Hospital","amenity":"hospital"},"geometry":{"type":"Point","coordinates":[120.958,14.687666]}},{"type":"Feature","properties":{"Name":"San Lorenzo Ruiz Womens Hospital","amenity":"hospital"},"geometry":{"type":"Point","coordinates":[120.957,14.694275]}},{"type":"Feature","properties":{"Name":"Valenzuela City Medical Center","amenity":"hospital"},"geometry":{"type":"Point","coordinates":[120.978,14.689496]}},{"type":"Feature","properties":{"Name":"Valenzuela Medical Center","amenity":"hospital"},"geometry":{"type":"Point","coordinates":[120.978,14.689762]}},{"type":"Feature","properties":{"Name":"Valenzuela City Emergency Hospital","amenity":"hospital"},"geometry":{"type":"Point","coordinates":[120.958,14.708942]}},{"type":"Feature","properties":{"Name":"Allied Care Experts Medical Center Valenzuela","amenity":"hospital"},"geometry":{"type":"Point","coordinates":[120.957,14.715274]}},{"type":"Feature","properties":{"Name":"Tanchoco Clinic","amenity":"hospital"},"geometry":{"type":"Point","coordinates":[120.943,14.67563]}},{"type":"Feature","properties":{"Name":"Tondo Medical Center","amenity":"hospital"},"geometry":{"type":"Point","coordinates":[120.963,14.635082]}},{"type":"Feature","properties":{"Name":"","amenity":"hospital"},"geometry":{"type":"Point","coordinates":[120.958,14.649163]}},{"type":"Feature","properties":{"Name":"Pagamutang Bayan Ng Malabon","amenity":"hospital"},"geometry":{"type":"Point","coordinates":[120.963,14.655204]}},{"type":"Feature","properties":{"Name":"Malabon Doctors Hospital","amenity":"hospital"},"geometry":{"type":"Point","coordinates":[120.96,14.65977]}},{"type":"Feature","properties":{"Name":"Abquillan Clinic","amenity":"hospital"},"geometry":{"type":"Point","coordinates":[120.958,14.661933]}},{"type":"Feature","properties":{"Name":"Navotas City Hospital","amenity":"hospital"},"geometry":{"type":"Point","coordinates":[120.946,14.660166]}},{"type":"Feature","properties":{"Name":"Ospital ng Malabon","amenity":"hospital"},"geometry":{"type":"Point","coordinates":[120.951,14.657175]}},{"type":"Feature","properties":{"Name":"Mary Mount Hospital","amenity":"hospital"},"geometry":{"type":"Point","coordinates":[120.989,14.764451]}},{"type":"Feature","properties":{"Name":"A. R. Bautista Children And General Hospital","amenity":"hospital"},"geometry":{"type":"Point","coordinates":[121.043,14.7303]}},{"type":"Feature","properties":{"Name":"Fairview Polymedic Hospital","amenity":"hospital"},"geometry":{"type":"Point","coordinates":[121.043,14.729371]}},{"type":"Feature","properties":{"Name":"","amenity":"hospital"},"geometry":{"type":"Point","coordinates":[121.039,14.719307]}},{"type":"Feature","properties":{"Name":"Our Lady Of Mercy Hospital","amenity":"hospital"},"geometry":{"type":"Point","coordinates":[121.04,14.721591]}},{"type":"Feature","properties":{"Name":"Our Lady Of Mercy Hospital","amenity":"hospital"},"geometry":{"type":"Point","coordinates":[121.04,14.721482]}},{"type":"Feature","properties":{"Name":"Valdez-Padron Clinic","amenity":"hospital"},"geometry":{"type":"Point","coordinates":[121.039,14.707998]}},{"type":"Feature","properties":{"Name":"Novaliches General Hospital","amenity":"hospital"},"geometry":{"type":"Point","coordinates":[121.039,14.709508]}},{"type":"Feature","properties":{"Name":"Lady Of  Lourdes Hospital Of Kaybiga","amenity":"hospital"},"geometry":{"type":"Point","coordinates":[121.007,14.719531]}},{"type":"Feature","properties":{"Name":"Bagbaguin Family Hospital","amenity":"hospital"},"geometry":{"type":"Point","coordinates":[121.005,14.718777]}},{"type":"Feature","properties":{"Name":"Ann Francis Maternity Hospital","amenity":"hospital"},"geometry":{"type":"Point","coordinates":[121.031,14.694371]}},{"type":"Feature","properties":{"Name":"Pacific Global Medical Center","amenity":"hospital"},"geometry":{"type":"Point","coordinates":[121.03,14.688404]}},{"type":"Feature","properties":{"Name":"Pasific Global Medical Center","amenity":"hospital"},"geometry":{"type":"Point","coordinates":[121.03,14.688463]}},{"type":"Feature","properties":{"Name":"Novaliches District Hospital","amenity":"hospital"},"geometry":{"type":"Point","coordinates":[121.034,14.700563]}},{"type":"Feature","properties":{"Name":"Bernardino General Hospital","amenity":"hospital"},"geometry":{"type":"Point","coordinates":[121.035,14.700571]}},{"type":"Feature","properties":{"Name":"Daughters of Faith Lying In","amenity":"hospital"},"geometry":{"type":"Point","coordinates":[121.054,14.68164]}},{"type":"Feature","properties":{"Name":"","amenity":"hospital"},"geometry":{"type":"Point","coordinates":[121.046,14.674879]}},{"type":"Feature","properties":{"Name":"Vian family hospital","amenity":"hospital"},"geometry":{"type":"Point","coordinates":[121.021,14.682847]}},{"type":"Feature","properties":{"Name":"Casaul General Hospital","amenity":"hospital"},"geometry":{"type":"Point","coordinates":[121.021,14.679375]}},{"type":"Feature","properties":{"Name":"Santa Clara de Montefalco Hospital","amenity":"hospital"},"geometry":{"type":"Point","coordinates":[120.972,14.749119]}},{"type":"Feature","properties":{"Name":"Open Field","amenity":"hospital"},"geometry":{"type":"Point","coordinates":[120.953,14.72978]}},{"type":"Feature","properties":{"Name":"","amenity":"hospital"},"geometry":{"type":"Point","coordinates":[120.957,14.749726]}},{"type":"Feature","properties":{"Name":"Nazarenus Hospital","amenity":"hospital"},"geometry":{"type":"Point","coordinates":[120.955,14.75158]}},{"type":"Feature","properties":{"Name":"Meycauayan Doctors Hospital","amenity":"hospital"},"geometry":{"type":"Point","coordinates":[120.96,14.726592]}},{"type":"Feature","properties":{"Name":"Meycauayan Doctors Hospital","amenity":"hospital"},"geometry":{"type":"Point","coordinates":[120.96,14.726058]}},{"type":"Feature","properties":{"Name":"Meycauayan Doctors Hospital","amenity":"hospital"},"geometry":{"type":"Point","coordinates":[120.96,14.726795]}},{"type":"Feature","properties":{"Name":"St. Francis Hospital","amenity":"hospital"},"geometry":{"type":"Point","coordinates":[120.957,14.733912]}},{"type":"Feature","properties":{"Name":"B A Hospital","amenity":"hospital"},"geometry":{"type":"Point","coordinates":[120.958,14.738459]}},{"type":"Feature","properties":{"Name":"The Lord Hospital","amenity":"hospital"},"geometry":{"type":"Point","coordinates":[120.958,14.737601]}},{"type":"Feature","properties":{"Name":"St. Michael Hospital","amenity":"hospital"},"geometry":{"type":"Point","coordinates":[120.948,14.761206]}},{"type":"Feature","properties":{"Name":"RHU I","amenity":"hospital"},"geometry":{"type":"Point","coordinates":[120.949,14.756993]}},{"type":"Feature","properties":{"Name":"Philippine Navy Hospital","amenity":"hospital"},"geometry":{"type":"Point","coordinates":[121.032,14.530295]}},{"type":"Feature","properties":{"Name":"Torres Hospital","amenity":"hospital"},"geometry":{"type":"Point","coordinates":[120.997,14.546031]}},{"type":"Feature","properties":{"Name":"","amenity":"hospital"},"geometry":{"type":"Point","coordinates":[121.001,14.549313]}},{"type":"Feature","properties":{"Name":"Miraculous Medal Hospital","amenity":"hospital"},"geometry":{"type":"Point","coordinates":[120.993,14.553641]}},{"type":"Feature","properties":{"Name":"","amenity":"hospital"},"geometry":{"type":"Point","coordinates":[120.995,14.555862]}},{"type":"Feature","properties":{"Name":"FortMED Medical Clinic","amenity":"hospital"},"geometry":{"type":"Point","coordinates":[121.022,14.563036]}},{"type":"Feature","properties":{"Name":"Maria Lourdes Maternity Hospital","amenity":"hospital"},"geometry":{"type":"Point","coordinates":[121.014,14.569938]}},{"type":"Feature","properties":{"Name":"Singapore Diagnostics","amenity":"hospital"},"geometry":{"type":"Point","coordinates":[121.017,14.557563]}},{"type":"Feature","properties":{"Name":"Kaiser Medical Center","amenity":"hospital"},"geometry":{"type":"Point","coordinates":[121.014,14.557691]}},{"type":"Feature","properties":{"Name":"Makati Medical Center","amenity":"hospital"},"geometry":{"type":"Point","coordinates":[121.015,14.559164]}},{"type":"Feature","properties":{"Name":"Makati Medical Center","amenity":"hospital"},"geometry":{"type":"Point","coordinates":[121.015,14.559185]}},{"type":"Feature","properties":{"Name":"Santa Ana Hospital","amenity":"hospital"},"geometry":{"type":"Point","coordinates":[121.016,14.583423]}},{"type":"Feature","properties":{"Name":"Trinity Woman and Child Hospital","amenity":"hospital"},"geometry":{"type":"Point","coordinates":[121.018,14.584151]}},{"type":"Feature","properties":{"Name":"Mandaluyong City Medical Center","amenity":"hospital"},"geometry":{"type":"Point","coordinates":[121.035,14.576312]}},{"type":"Feature","properties":{"Name":"National Center for Mental Health","amenity":"hospital"},"geometry":{"type":"Point","coordinates":[121.041,14.581368]}},{"type":"Feature","properties":{"Name":"Mandaluyong City Dialysis Center","amenity":"hospital"},"geometry":{"type":"Point","coordinates":[121.036,14.582507]}},{"type":"Feature","properties":{"Name":"","amenity":"hospital"},"geometry":{"type":"Point","coordinates":[120.993,14.538634]}},{"type":"Feature","properties":{"Name":"Ospital ng Parañaque","amenity":"hospital"},"geometry":{"type":"Point","coordinates":[120.991,14.500428]}},{"type":"Feature","properties":{"Name":"Protacio Hospital","amenity":"hospital"},"geometry":{"type":"Point","coordinates":[120.997,14.524194]}},{"type":"Feature","properties":{"Name":"Sta. Rita De Baclaran General Hospital","amenity":"hospital"},"geometry":{"type":"Point","coordinates":[120.996,14.529907]}},{"type":"Feature","properties":{"Name":"Unihealth-Parañaque Hospital and Medical Center","amenity":"hospital"},"geometry":{"type":"Point","coordinates":[121.02,14.464508]}},{"type":"Feature","properties":{"Name":"Our Lady of Peace Hospital","amenity":"hospital"},"geometry":{"type":"Point","coordinates":[120.984,14.488357]}},{"type":"Feature","properties":{"Name":"San Jose Clinic","amenity":"hospital"},"geometry":{"type":"Point","coordinates":[120.998,14.474295]}},{"type":"Feature","properties":{"Name":"Olivarez General Hospital","amenity":"hospital"},"geometry":{"type":"Point","coordinates":[120.997,14.479353]}},{"type":"Feature","properties":{"Name":"Victor R. Potenciano Medical Center","amenity":"hospital"},"geometry":{"type":"Point","coordinates":[121.05,14.57699]}},{"type":"Feature","properties":{"Name":"Joson Medical Clinic","amenity":"hospital"},"geometry":{"type":"Point","coordinates":[121.082,14.578741]}},{"type":"Feature","properties":{"Name":"Lizardo Childrens Clinic","amenity":"hospital"},"geometry":{"type":"Point","coordinates":[121.082,14.57788]}},{"type":"Feature","properties":{"Name":"Morales Childrens Clinic","amenity":"hospital"},"geometry":{"type":"Point","coordinates":[121.082,14.57801]}},{"type":"Feature","properties":{"Name":"Hi-Precision Diagnostics","amenity":"hospital"},"geometry":{"type":"Point","coordinates":[121.085,14.576424]}},{"type":"Feature","properties":{"Name":"St. Therese Doctors Hospital","amenity":"hospital"},"geometry":{"type":"Point","coordinates":[121.085,14.576648]}},{"type":"Feature","properties":{"Name":"TriCity Medical Center","amenity":"hospital"},"geometry":{"type":"Point","coordinates":[121.085,14.575873]}},{"type":"Feature","properties":{"Name":"Mother Regina","amenity":"hospital"},"geometry":{"type":"Point","coordinates":[121.085,14.58352]}},{"type":"Feature","properties":{"Name":"Calle-piramide Medical Clinic","amenity":"hospital"},"geometry":{"type":"Point","coordinates":[121.084,14.581727]}},{"type":"Feature","properties":{"Name":"Alfonso Specialist Hospital","amenity":"hospital"},"geometry":{"type":"Point","coordinates":[121.085,14.590146]}},{"type":"Feature","properties":{"Name":"Alfonso Specialist Hospital","amenity":"hospital"},"geometry":{"type":"Point","coordinates":[121.085,14.590141]}},{"type":"Feature","properties":{"Name":"Sabater General Hospital","amenity":"hospital"},"geometry":{"type":"Point","coordinates":[121.083,14.559989]}},{"type":"Feature","properties":{"Name":"Dr. Imelda Evangelista Maternity Clinic","amenity":"hospital"},"geometry":{"type":"Point","coordinates":[121.089,14.555829]}},{"type":"Feature","properties":{"Name":"Javillonar Clinic and Hospital","amenity":"hospital"},"geometry":{"type":"Point","coordinates":[121.078,14.565386]}},{"type":"Feature","properties":{"Name":"medizone","amenity":"hospital"},"geometry":{"type":"Point","coordinates":[121.085,14.568569]}},{"type":"Feature","properties":{"Name":"Alfonso Clinic","amenity":"hospital"},"geometry":{"type":"Point","coordinates":[121.086,14.568195]}},{"type":"Feature","properties":{"Name":"Immaculate Conception Lying-In & Multi Specialty Clinic, Inc.","amenity":"hospital"},"geometry":{"type":"Point","coordinates":[121.085,14.564773]}},{"type":"Feature","properties":{"Name":"Immaculate Conception Lying In & Multi Specialty Clinic","amenity":"hospital"},"geometry":{"type":"Point","coordinates":[121.085,14.564713]}},{"type":"Feature","properties":{"Name":"Mary's Infant General Hospital, Inc.","amenity":"hospital"},"geometry":{"type":"Point","coordinates":[121.076,14.55577]}},{"type":"Feature","properties":{"Name":"Pasig City Children's Hospital","amenity":"hospital"},"geometry":{"type":"Point","coordinates":[121.074,14.561984]}},{"type":"Feature","properties":{"Name":"The Medical City","amenity":"hospital"},"geometry":{"type":"Point","coordinates":[121.069,14.589748]}},{"type":"Feature","properties":{"Name":"The Medical City","amenity":"hospital"},"geometry":{"type":"Point","coordinates":[121.069,14.589913]}},{"type":"Feature","properties":{"Name":"SIMS Medical Clinic and Laboratory","amenity":"hospital"},"geometry":{"type":"Point","coordinates":[121.06,14.633073]}},{"type":"Feature","properties":{"Name":"Armed Forces of the Philippines Medical Center","amenity":"hospital"},"geometry":{"type":"Point","coordinates":[121.052,14.634827]}},{"type":"Feature","properties":{"Name":"World Citi Medical Center","amenity":"hospital"},"geometry":{"type":"Point","coordinates":[121.063,14.627063]}},{"type":"Feature","properties":{"Name":"Villarosa Hospital","amenity":"hospital"},"geometry":{"type":"Point","coordinates":[121.066,14.621945]}},{"type":"Feature","properties":{"Name":"Quirino Memorial Medical Center","amenity":"hospital"},"geometry":{"type":"Point","coordinates":[121.072,14.622193]}},{"type":"Feature","properties":{"Name":"Quirino Memorial Medical Center","amenity":"hospital"},"geometry":{"type":"Point","coordinates":[121.073,14.622487]}},{"type":"Feature","properties":{"Name":"Dental Clinic","amenity":"hospital"},"geometry":{"type":"Point","coordinates":[121.073,14.636419]}},{"type":"Feature","properties":{"Name":"Horseshoe Pet Clinic","amenity":"hospital"},"geometry":{"type":"Point","coordinates":[121.073,14.639021]}},{"type":"Feature","properties":{"Name":"Dental clinic","amenity":"hospital"},"geometry":{"type":"Point","coordinates":[121.073,14.633984]}},{"type":"Feature","properties":{"Name":"Nephro Care","amenity":"hospital"},"geometry":{"type":"Point","coordinates":[121.043,14.618608]}},{"type":"Feature","properties":{"Name":"New York Medical And Surgical Clinic","amenity":"hospital"},"geometry":{"type":"Point","coordinates":[121.051,14.62679]}},{"type":"Feature","properties":{"Name":"Dr. Jesus C. Delgado Memorial Hospital","amenity":"hospital"},"geometry":{"type":"Point","coordinates":[121.035,14.627808]}},{"type":"Feature","properties":{"Name":"PNP Hospital","amenity":"hospital"},"geometry":{"type":"Point","coordinates":[121.052,14.615363]}},{"type":"Feature","properties":{"Name":"St. Andrew Drug Screening & Neuro Psyco Testing Center","amenity":"hospital"},"geometry":{"type":"Point","coordinates":[121.053,14.610528]}},{"type":"Feature","properties":{"Name":"Philippine National Police General Hospital","amenity":"hospital"},"geometry":{"type":"Point","coordinates":[121.052,14.609697]}},{"type":"Feature","properties":{"Name":"Madrid Polyclinic & Diagnostic Center","amenity":"hospital"},"geometry":{"type":"Point","coordinates":[121.063,14.613477]}},{"type":"Feature","properties":{"Name":"Madrid Polyclinic & Diagnostic Center","amenity":"hospital"},"geometry":{"type":"Point","coordinates":[121.062,14.613332]}},{"type":"Feature","properties":{"Name":"CGEA Station Hospital","amenity":"hospital"},"geometry":{"type":"Point","coordinates":[121.064,14.612485]}},{"type":"Feature","properties":{"Name":"Best Diagnostic Corp","amenity":"hospital"},"geometry":{"type":"Point","coordinates":[121.052,14.6447]}},{"type":"Feature","properties":{"Name":"Philippine Heart Center","amenity":"hospital"},"geometry":{"type":"Point","coordinates":[121.048,14.643932]}},{"type":"Feature","properties":{"Name":"East Avenue Medical Center","amenity":"hospital"},"geometry":{"type":"Point","coordinates":[121.048,14.641902]}},{"type":"Feature","properties":{"Name":"EAMC OPD","amenity":"hospital"},"geometry":{"type":"Point","coordinates":[121.048,14.642739]}},{"type":"Feature","properties":{"Name":"Pasig City General Hospital","amenity":"hospital"},"geometry":{"type":"Point","coordinates":[121.099,14.572463]}},{"type":"Feature","properties":{"Name":"Ortigas Hospital and Healthcare Center","amenity":"hospital"},"geometry":{"type":"Point","coordinates":[121.118,14.585975]}},{"type":"Feature","properties":{"Name":"Metro Rizal Doctors Hospital","amenity":"hospital"},"geometry":{"type":"Point","coordinates":[121.114,14.582592]}},{"type":"Feature","properties":{"Name":"Cainta Municipal Hospital","amenity":"hospital"},"geometry":{"type":"Point","coordinates":[121.114,14.580295]}},{"type":"Feature","properties":{"Name":"Cainta Municipal Hospital | Maternal and Child Health Hub","amenity":"hospital"},"geometry":{"type":"Point","coordinates":[121.116,14.576416]}},{"type":"Feature","properties":{"Name":"Metro Rizal Doctors Hospital","amenity":"hospital"},"geometry":{"type":"Point","coordinates":[121.116,14.576375]}},{"type":"Feature","properties":{"Name":"Taytay Doctors Multispecialty Hospital","amenity":"hospital"},"geometry":{"type":"Point","coordinates":[121.125,14.573818]}},{"type":"Feature","properties":{"Name":"Taytay Emergency Hospital","amenity":"hospital"},"geometry":{"type":"Point","coordinates":[121.131,14.57091]}},{"type":"Feature","properties":{"Name":"St. Luke's Medical Center Global City","amenity":"hospital"},"geometry":{"type":"Point","coordinates":[121.048,14.555101]}},{"type":"Feature","properties":{"Name":"Fort Bonifacio General Hospital","amenity":"hospital"},"geometry":{"type":"Point","coordinates":[121.048,14.530955]}},{"type":"Feature","properties":{"Name":"Cruz-Rabe Hospital","amenity":"hospital"},"geometry":{"type":"Point","coordinates":[121.071,14.529318]}},{"type":"Feature","properties":{"Name":"Medical Center Taguig","amenity":"hospital"},"geometry":{"type":"Point","coordinates":[121.065,14.530862]}},{"type":"Feature","properties":{"Name":"Allied Care Experts (ACE) Medical Center","amenity":"hospital"},"geometry":{"type":"Point","coordinates":[121.065,14.544085]}},{"type":"Feature","properties":{"Name":"Ospital ng Makati","amenity":"hospital"},"geometry":{"type":"Point","coordinates":[121.062,14.546392]}},{"type":"Feature","properties":{"Name":"Rizal Medical Center","amenity":"hospital"},"geometry":{"type":"Point","coordinates":[121.066,14.563943]}},{"type":"Feature","properties":{"Name":"Mary Immaculate Hospital","amenity":"hospital"},"geometry":{"type":"Point","coordinates":[121.071,14.566918]}},{"type":"Feature","properties":{"Name":"Muslim Hospital","amenity":"hospital"},"geometry":{"type":"Point","coordinates":[121.054,14.496358]}},{"type":"Feature","properties":{"Name":"Hospital Ground","amenity":"hospital"},"geometry":{"type":"Point","coordinates":[121.058,14.48889]}},{"type":"Feature","properties":{"Name":"Dr. Sabili Health Services cooperation","amenity":"hospital"},"geometry":{"type":"Point","coordinates":[121.061,14.488774]}},{"type":"Feature","properties":{"Name":"Dr. Sabili General Hospital & Health Services","amenity":"hospital"},"geometry":{"type":"Point","coordinates":[121.056,14.488208]}},{"type":"Feature","properties":{"Name":"Gallo Medical Clinic","amenity":"hospital"},"geometry":{"type":"Point","coordinates":[121.052,14.516493]}},{"type":"Feature","properties":{"Name":"Recuenco General Hospital","amenity":"hospital"},"geometry":{"type":"Point","coordinates":[121.06,14.513332]}},{"type":"Feature","properties":{"Name":"Medical Center Parañaque","amenity":"hospital"},"geometry":{"type":"Point","coordinates":[121.033,14.458344]}},{"type":"Feature","properties":{"Name":"Taguig Doctors Hospital","amenity":"hospital"},"geometry":{"type":"Point","coordinates":[121.057,14.46869]}},{"type":"Feature","properties":{"Name":"Taguig Pateros Hospital","amenity":"hospital"},"geometry":{"type":"Point","coordinates":[121.061,14.478886]}},{"type":"Feature","properties":{"Name":"Commcare, Inc.","amenity":"hospital"},"geometry":{"type":"Point","coordinates":[121.024,14.501349]}},{"type":"Feature","properties":{"Name":"Air Force General Hospital","amenity":"hospital"},"geometry":{"type":"Point","coordinates":[121.02,14.516917]}},{"type":"Feature","properties":{"Name":"Taguiug-Pateros District Hospital","amenity":"hospital"},"geometry":{"type":"Point","coordinates":[121.034,14.510808]}},{"type":"Feature","properties":{"Name":"Parañaque Doctors' Hospital","amenity":"hospital"},"geometry":{"type":"Point","coordinates":[121.029,14.485849]}},{"type":"Feature","properties":{"Name":"National Center for Geriatric Health","amenity":"hospital"},"geometry":{"type":"Point","coordinates":[120.991,14.591858]}},{"type":"Feature","properties":{"Name":"Presidential Security Group Station Hospital","amenity":"hospital"},"geometry":{"type":"Point","coordinates":[121.001,14.593715]}},{"type":"Feature","properties":{"Name":"Ygeia Medical Center, Inc.","amenity":"hospital"},"geometry":{"type":"Point","coordinates":[121.002,14.588052]}},{"type":"Feature","properties":{"Name":"Ygeia Medical Center, Inc.","amenity":"hospital"},"geometry":{"type":"Point","coordinates":[121.002,14.588047]}},{"type":"Feature","properties":{"Name":"","amenity":"hospital"},"geometry":{"type":"Point","coordinates":[120.986,14.563956]}},{"type":"Feature","properties":{"Name":"Micah Clinic","amenity":"hospital"},"geometry":{"type":"Point","coordinates":[120.993,14.572805]}},{"type":"Feature","properties":{"Name":"Hi-Precision Diagnostic (Remedios)","amenity":"hospital"},"geometry":{"type":"Point","coordinates":[120.99,14.573492]}},{"type":"Feature","properties":{"Name":"Philippine General Hospital","amenity":"hospital"},"geometry":{"type":"Point","coordinates":[120.986,14.577979]}},{"type":"Feature","properties":{"Name":"Philippine General Hospital","amenity":"hospital"},"geometry":{"type":"Point","coordinates":[120.986,14.577818]}},{"type":"Feature","properties":{"Name":"Medical Center Manila","amenity":"hospital"},"geometry":{"type":"Point","coordinates":[120.986,14.582547]}},{"type":"Feature","properties":{"Name":"Manila Doctors Hospital","amenity":"hospital"},"geometry":{"type":"Point","coordinates":[120.983,14.58209]}},{"type":"Feature","properties":{"Name":"Sagrada Corazon Medical Center","amenity":"hospital"},"geometry":{"type":"Point","coordinates":[120.979,14.579957]}},{"type":"Feature","properties":{"Name":"AMOSUP Seamen's Hospital","amenity":"hospital"},"geometry":{"type":"Point","coordinates":[120.978,14.587463]}},{"type":"Feature","properties":{"Name":"Cardinal Santos Medical Center","amenity":"hospital"},"geometry":{"type":"Point","coordinates":[121.046,14.597445]}},{"type":"Feature","properties":{"Name":"Saint Martin de Porres Charity Hospital","amenity":"hospital"},"geometry":{"type":"Point","coordinates":[121.032,14.598959]}},{"type":"Feature","properties":{"Name":"Unciano Paramedical General Hospital","amenity":"hospital"},"geometry":{"type":"Point","coordinates":[121.016,14.600708]}},{"type":"Feature","properties":{"Name":"San Juan Medical Center","amenity":"hospital"},"geometry":{"type":"Point","coordinates":[121.023,14.60657]}},{"type":"Feature","properties":{"Name":"University of the East - Ramon Magsaysay Memorial Medical Center","amenity":"hospital"},"geometry":{"type":"Point","coordinates":[121.021,14.606657]}},{"type":"Feature","properties":{"Name":"Main Building","amenity":"hospital"},"geometry":{"type":"Point","coordinates":[121.023,14.594879]}},{"type":"Feature","properties":{"Name":"Our Lady of Lourdes Hospital","amenity":"hospital"},"geometry":{"type":"Point","coordinates":[121.022,14.594938]}},{"type":"Feature","properties":{"Name":"Manas Hospital","amenity":"hospital"},"geometry":{"type":"Point","coordinates":[120.824,14.37052]}},{"type":"Feature","properties":{"Name":"Contreras Hospital","amenity":"hospital"},"geometry":{"type":"Point","coordinates":[120.858,14.413392]}},{"type":"Feature","properties":{"Name":"Korea-Philippines Friendship Clinic","amenity":"hospital"},"geometry":{"type":"Point","coordinates":[120.879,14.407757]}},{"type":"Feature","properties":{"Name":"St. Martin Maternity and Pediatrics Hospital","amenity":"hospital"},"geometry":{"type":"Point","coordinates":[120.874,14.425703]}},{"type":"Feature","properties":{"Name":"Tanza General Hospital","amenity":"hospital"},"geometry":{"type":"Point","coordinates":[120.849,14.390437]}},{"type":"Feature","properties":{"Name":"Divine Grace Medical Center","amenity":"hospital"},"geometry":{"type":"Point","coordinates":[120.868,14.397938]}},{"type":"Feature","properties":{"Name":"General Trias Maternity Hospital","amenity":"hospital"},"geometry":{"type":"Point","coordinates":[120.863,14.396684]}},{"type":"Feature","properties":{"Name":"General Trias Medicare Hospital","amenity":"hospital"},"geometry":{"type":"Point","coordinates":[120.882,14.373945]}},{"type":"Feature","properties":{"Name":"Mama Rachel Hospital of Mercy Inc.","amenity":"hospital"},"geometry":{"type":"Point","coordinates":[120.89,14.381286]}},{"type":"Feature","properties":{"Name":"Mama Rachel Hospital of Mercy Inc.","amenity":"hospital"},"geometry":{"type":"Point","coordinates":[120.89,14.381125]}},{"type":"Feature","properties":{"Name":"Living Hope Maternity and Childcare Clinic","amenity":"hospital"},"geometry":{"type":"Point","coordinates":[120.916,14.429785]}},{"type":"Feature","properties":{"Name":"Onda Medical Clinic","amenity":"hospital"},"geometry":{"type":"Point","coordinates":[120.903,14.443451]}},{"type":"Feature","properties":{"Name":"St. Jude Maternity Clinic","amenity":"hospital"},"geometry":{"type":"Point","coordinates":[120.934,14.406298]}},{"type":"Feature","properties":{"Name":"Health Probe Diagnostic Clinic","amenity":"hospital"},"geometry":{"type":"Point","coordinates":[120.926,14.40548]}},{"type":"Feature","properties":{"Name":"Bucandala Animal Bite Clinic","amenity":"hospital"},"geometry":{"type":"Point","coordinates":[120.928,14.405917]}},{"type":"Feature","properties":{"Name":"Medical Clinic","amenity":"hospital"},"geometry":{"type":"Point","coordinates":[120.928,14.406029]}},{"type":"Feature","properties":{"Name":"Crisostomo General Hospital","amenity":"hospital"},"geometry":{"type":"Point","coordinates":[120.933,14.449185]}},{"type":"Feature","properties":{"Name":"Kawit Lying In Clinic","amenity":"hospital"},"geometry":{"type":"Point","coordinates":[120.921,14.448971]}},{"type":"Feature","properties":{"Name":"Binakayan Hospital and Medical Center","amenity":"hospital"},"geometry":{"type":"Point","coordinates":[120.926,14.45196]}},{"type":"Feature","properties":{"Name":"Child Specialist and Family Clinic","amenity":"hospital"},"geometry":{"type":"Point","coordinates":[120.929,14.452963]}},{"type":"Feature","properties":{"Name":"Kawit Kalayaan Hospital","amenity":"hospital"},"geometry":{"type":"Point","coordinates":[120.899,14.416973]}},{"type":"Feature","properties":{"Name":"San Pedro Calungsod Medical Center","amenity":"hospital"},"geometry":{"type":"Point","coordinates":[120.895,14.427797]}},{"type":"Feature","properties":{"Name":"Cavite Medical Center","amenity":"hospital"},"geometry":{"type":"Point","coordinates":[120.882,14.463395]}},{"type":"Feature","properties":{"Name":"Bautista Hospital","amenity":"hospital"},"geometry":{"type":"Point","coordinates":[120.891,14.477005]}},{"type":"Feature","properties":{"Name":"Bautista Hospital Medical Arts Building","amenity":"hospital"},"geometry":{"type":"Point","coordinates":[120.894,14.477966]}},{"type":"Feature","properties":{"Name":"Doctor Olivia Salamanca Memorial District Hospital","amenity":"hospital"},"geometry":{"type":"Point","coordinates":[120.911,14.481364]}},{"type":"Feature","properties":{"Name":"Cavite Naval Hospital","amenity":"hospital"},"geometry":{"type":"Point","coordinates":[120.914,14.483123]}},{"type":"Feature","properties":{"Name":"Ospital ng Imus","amenity":"hospital"},"geometry":{"type":"Point","coordinates":[120.92,14.39336]}},{"type":"Feature","properties":{"Name":"Ospital ng Imus","amenity":"hospital"},"geometry":{"type":"Point","coordinates":[120.92,14.39333]}},{"type":"Feature","properties":{"Name":"South City Hospital and Medical Center","amenity":"hospital"},"geometry":{"type":"Point","coordinates":[121.001,14.375552]}},{"type":"Feature","properties":{"Name":"Paredes Primary Care Center (Level 1 Hospital)","amenity":"hospital"},"geometry":{"type":"Point","coordinates":[120.941,14.412914]}},{"type":"Feature","properties":{"Name":"Virata Medical Clinic","amenity":"hospital"},"geometry":{"type":"Point","coordinates":[120.933,14.427742]}},{"type":"Feature","properties":{"Name":"Medical Center Imus","amenity":"hospital"},"geometry":{"type":"Point","coordinates":[120.947,14.426334]}},{"type":"Feature","properties":{"Name":"OLPMC","amenity":"hospital"},"geometry":{"type":"Point","coordinates":[120.939,14.41931]}},{"type":"Feature","properties":{"Name":"Our Lady of the Pillar Medical Center","amenity":"hospital"},"geometry":{"type":"Point","coordinates":[120.939,14.419061]}},{"type":"Feature","properties":{"Name":"Cavite Skin Clinic","amenity":"hospital"},"geometry":{"type":"Point","coordinates":[120.942,14.422929]}},{"type":"Feature","properties":{"Name":"","amenity":"hospital"},"geometry":{"type":"Point","coordinates":[120.943,14.425759]}},{"type":"Feature","properties":{"Name":"Southern Tagalog Regional Hospital","amenity":"hospital"},"geometry":{"type":"Point","coordinates":[120.947,14.441331]}},{"type":"Feature","properties":{"Name":"Imus Family Hospital","amenity":"hospital"},"geometry":{"type":"Point","coordinates":[120.946,14.432441]}},{"type":"Feature","properties":{"Name":"","amenity":"hospital"},"geometry":{"type":"Point","coordinates":[120.946,14.432528]}},{"type":"Feature","properties":{"Name":"E. Zarate Hospital","amenity":"hospital"},"geometry":{"type":"Point","coordinates":[120.994,14.446767]}},{"type":"Feature","properties":{"Name":"Aesthetic Avenue Medical Clinic","amenity":"hospital"},"geometry":{"type":"Point","coordinates":[120.992,14.442218]}},{"type":"Feature","properties":{"Name":"BF Maternity Clinic","amenity":"hospital"},"geometry":{"type":"Point","coordinates":[120.992,14.442396]}},{"type":"Feature","properties":{"Name":"Alabang Medical Clinic","amenity":"hospital"},"geometry":{"type":"Point","coordinates":[120.997,14.442909]}},{"type":"Feature","properties":{"Name":"Pope John Paul II Hospital and Medical Center","amenity":"hospital"},"geometry":{"type":"Point","coordinates":[120.996,14.443311]}},{"type":"Feature","properties":{"Name":"Las Piñas Doctors Hospital","amenity":"hospital"},"geometry":{"type":"Point","coordinates":[120.994,14.455868]}},{"type":"Feature","properties":{"Name":"Las Piñas Doctors Hospital","amenity":"hospital"},"geometry":{"type":"Point","coordinates":[120.994,14.455778]}},{"type":"Feature","properties":{"Name":"University of Perpetual Help Dalta Medical Center","amenity":"hospital"},"geometry":{"type":"Point","coordinates":[120.986,14.448304]}},{"type":"Feature","properties":{"Name":"Las Piñas City Health Office","amenity":"hospital"},"geometry":{"type":"Point","coordinates":[120.983,14.450241]}},{"type":"Feature","properties":{"Name":"King of Kings Servant Healer Medical Clinic","amenity":"hospital"},"geometry":{"type":"Point","coordinates":[120.989,14.433875]}},{"type":"Feature","properties":{"Name":"King of Kings Servant Healer Medical Clinic","amenity":"hospital"},"geometry":{"type":"Point","coordinates":[120.989,14.43387]}},{"type":"Feature","properties":{"Name":"Bacoor Doctors Medical Center","amenity":"hospital"},"geometry":{"type":"Point","coordinates":[120.968,14.419835]}},{"type":"Feature","properties":{"Name":"Prime Global Care Medical Center Inc.","amenity":"hospital"},"geometry":{"type":"Point","coordinates":[120.974,14.397959]}},{"type":"Feature","properties":{"Name":"Southeast Asian Medical Center","amenity":"hospital"},"geometry":{"type":"Point","coordinates":[120.977,14.405806]}},{"type":"Feature","properties":{"Name":"Hospital St. Michael","amenity":"hospital"},"geometry":{"type":"Point","coordinates":[120.977,14.409652]}},{"type":"Feature","properties":{"Name":"Molino Doctors Hospital","amenity":"hospital"},"geometry":{"type":"Point","coordinates":[120.976,14.410585]}},{"type":"Feature","properties":{"Name":"","amenity":"hospital"},"geometry":{"type":"Point","coordinates":[121.004,14.429724]}},{"type":"Feature","properties":{"Name":"Golden Acres Doctors' Hospital","amenity":"hospital"},"geometry":{"type":"Point","coordinates":[120.998,14.419061]}},{"type":"Feature","properties":{"Name":"Cabinte Maternity & Children's Hospital","amenity":"hospital"},"geometry":{"type":"Point","coordinates":[120.995,14.42031]}},{"type":"Feature","properties":{"Name":"AL Santos Medical clinic","amenity":"hospital"},"geometry":{"type":"Point","coordinates":[120.958,14.329772]}},{"type":"Feature","properties":{"Name":"Emilio Aguinaldo College Medical Center-Cavite","amenity":"hospital"},"geometry":{"type":"Point","coordinates":[120.94,14.348638]}},{"type":"Feature","properties":{"Name":"De La Salle University Medical Center","amenity":"hospital"},"geometry":{"type":"Point","coordinates":[120.944,14.329674]}},{"type":"Feature","properties":{"Name":"Poblete Optical","amenity":"hospital"},"geometry":{"type":"Point","coordinates":[120.936,14.32762]}},{"type":"Feature","properties":{"Name":"PHILIPPINE RED CROSS - DASMARINAS BRANCH","amenity":"hospital"},"geometry":{"type":"Point","coordinates":[120.94,14.32764]}},{"type":"Feature","properties":{"Name":"G.M.F. Medical and Lying In Clinic","amenity":"hospital"},"geometry":{"type":"Point","coordinates":[120.938,14.32868]}},{"type":"Feature","properties":{"Name":"Velasquez Dental Clinic","amenity":"hospital"},"geometry":{"type":"Point","coordinates":[120.938,14.329102]}},{"type":"Feature","properties":{"Name":"GMF Hospital","amenity":"hospital"},"geometry":{"type":"Point","coordinates":[120.938,14.32848]}},{"type":"Feature","properties":{"Name":"Dasmariñas City Medical Center","amenity":"hospital"},"geometry":{"type":"Point","coordinates":[120.982,14.353421]}},{"type":"Feature","properties":{"Name":"Metro South Medical Center","amenity":"hospital"},"geometry":{"type":"Point","coordinates":[120.98,14.373821]}},{"type":"Feature","properties":{"Name":"Asia Medic Family Hospital and Medical Center","amenity":"hospital"},"geometry":{"type":"Point","coordinates":[120.957,14.299007]}},{"type":"Feature","properties":{"Name":"St. Paul Hospital","amenity":"hospital"},"geometry":{"type":"Point","coordinates":[120.963,14.322994]}},{"type":"Feature","properties":{"Name":"Pagamutan ng Dasmariñas (Dasmariñas City Hospital)","amenity":"hospital"},"geometry":{"type":"Point","coordinates":[120.962,14.32303]}},{"type":"Feature","properties":{"Name":"Narciso - Fabella Clinic","amenity":"hospital"},"geometry":{"type":"Point","coordinates":[120.964,14.317424]}},{"type":"Feature","properties":{"Name":"","amenity":"hospital"},"geometry":{"type":"Point","coordinates":[120.964,14.317462]}},{"type":"Feature","properties":{"Name":"","amenity":"hospital"},"geometry":{"type":"Point","coordinates":[120.964,14.317399]}},{"type":"Feature","properties":{"Name":"Cavite Doctor's Medical Center","amenity":"hospital"},"geometry":{"type":"Point","coordinates":[120.929,14.292806]}},{"type":"Feature","properties":{"Name":"Gentri Medical Center and Hospital","amenity":"hospital"},"geometry":{"type":"Point","coordinates":[120.907,14.289119]}},{"type":"Feature","properties":{"Name":"City Of General Trias Doctors Medical Center","amenity":"hospital"},"geometry":{"type":"Point","coordinates":[120.904,14.291068]}},{"type":"Feature","properties":{"Name":"","amenity":"hospital"},"geometry":{"type":"Point","coordinates":[121.028,14.440569]}},{"type":"Feature","properties":{"Name":"Beato-Cauilan Hospital","amenity":"hospital"},"geometry":{"type":"Point","coordinates":[121.049,14.370974]}},{"type":"Feature","properties":{"Name":"Jose Amante Hospital City of San Pedro","amenity":"hospital"},"geometry":{"type":"Point","coordinates":[121.056,14.364908]}},{"type":"Feature","properties":{"Name":"Divine Mercy Hospital","amenity":"hospital"},"geometry":{"type":"Point","coordinates":[121.058,14.359016]}},{"type":"Feature","properties":{"Name":"Alabang Medical Clinic","amenity":"hospital"},"geometry":{"type":"Point","coordinates":[121.044,14.391035]}},{"type":"Feature","properties":{"Name":"Medical Center Muntinlupa","amenity":"hospital"},"geometry":{"type":"Point","coordinates":[121.045,14.394961]}},{"type":"Feature","properties":{"Name":"Unihealth Southwoods Hospital and Medical Center","amenity":"hospital"},"geometry":{"type":"Point","coordinates":[121.048,14.331623]}},{"type":"Feature","properties":{"Name":"San Pedro Doctor's Hospital","amenity":"hospital"},"geometry":{"type":"Point","coordinates":[121.065,14.348864]}},{"type":"Feature","properties":{"Name":"Westlake Medical Center","amenity":"hospital"},"geometry":{"type":"Point","coordinates":[121.065,14.346899]}},{"type":"Feature","properties":{"Name":"Evangelista Multi Specialty Hospital","amenity":"hospital"},"geometry":{"type":"Point","coordinates":[121.058,14.342049]}},{"type":"Feature","properties":{"Name":"Family Care Hospital","amenity":"hospital"},"geometry":{"type":"Point","coordinates":[121.058,14.342364]}},{"type":"Feature","properties":{"Name":"Alabang Medical Center","amenity":"hospital"},"geometry":{"type":"Point","coordinates":[121.024,14.427765]}},{"type":"Feature","properties":{"Name":"Research Institute for Tropical Medicine","amenity":"hospital"},"geometry":{"type":"Point","coordinates":[121.037,14.409718]}},{"type":"Feature","properties":{"Name":"Alabang Medical Clinic (Montillano Branch)","amenity":"hospital"},"geometry":{"type":"Point","coordinates":[121.05,14.419238]}},{"type":"Feature","properties":{"Name":"Ospital ng Muntinlupa","amenity":"hospital"},"geometry":{"type":"Point","coordinates":[121.044,14.414275]}},{"type":"Feature","properties":{"Name":"Asian Hospital and Medical Center","amenity":"hospital"},"geometry":{"type":"Point","coordinates":[121.044,14.413329]}},{"type":"Feature","properties":{"Name":"MNS Ultrasound","amenity":"hospital"},"geometry":{"type":"Point","coordinates":[120.945,14.459839]}},{"type":"Feature","properties":{"Name":"Las Piñas General Hospital & Satellite Trauma Center","amenity":"hospital"},"geometry":{"type":"Point","coordinates":[120.974,14.471618]}},{"type":"Feature","properties":{"Name":"Christ the King Medical Center","amenity":"hospital"},"geometry":{"type":"Point","coordinates":[120.97,14.459032]}},{"type":"Feature","properties":{"Name":"St. Dominic Medical Center","amenity":"hospital"},"geometry":{"type":"Point","coordinates":[120.96,14.459249]}},{"type":"Feature","properties":{"Name":"Pamplona Medical Clinic","amenity":"hospital"},"geometry":{"type":"Point","coordinates":[120.962,14.462396]}},{"type":"Feature","properties":{"Name":"Christ The King General Hospital","amenity":"hospital"},"geometry":{"type":"Point","coordinates":[120.961,14.462626]}},{"type":"Feature","properties":{"Name":"Tooth Matters","amenity":"hospital"},"geometry":{"type":"Point","coordinates":[121.067,14.720153]}},{"type":"Feature","properties":{"Name":"Casual General Hospital","amenity":"hospital"},"geometry":{"type":"Point","coordinates":[121.071,14.737001]}},{"type":"Feature","properties":{"Name":"Neopolitan Hospital","amenity":"hospital"},"geometry":{"type":"Point","coordinates":[121.069,14.735618]}},{"type":"Feature","properties":{"Name":"San Lorenzo Hospital","amenity":"hospital"},"geometry":{"type":"Point","coordinates":[121.069,14.735666]}},{"type":"Feature","properties":{"Name":"Mary Queen Medical Clinic","amenity":"hospital"},"geometry":{"type":"Point","coordinates":[121.057,14.739128]}},{"type":"Feature","properties":{"Name":"Commonwealth Hospital and Medical Center","amenity":"hospital"},"geometry":{"type":"Point","coordinates":[121.061,14.73162]}},{"type":"Feature","properties":{"Name":"Nodado General Hospital","amenity":"hospital"},"geometry":{"type":"Point","coordinates":[121.047,14.738263]}},{"type":"Feature","properties":{"Name":"Bernardino General Hospital","amenity":"hospital"},"geometry":{"type":"Point","coordinates":[121.047,14.740197]}},{"type":"Feature","properties":{"Name":"Fairview General Hospital","amenity":"hospital"},"geometry":{"type":"Point","coordinates":[121.072,14.705675]}},{"type":"Feature","properties":{"Name":"AF Holy Spirit Clinic","amenity":"hospital"},"geometry":{"type":"Point","coordinates":[121.084,14.686666]}},{"type":"Feature","properties":{"Name":"","amenity":"hospital"},"geometry":{"type":"Point","coordinates":[121.089,14.686087]}},{"type":"Feature","properties":{"Name":"Rosario Maclang Bautista General Hospital","amenity":"hospital"},"geometry":{"type":"Point","coordinates":[121.089,14.686041]}},{"type":"Feature","properties":{"Name":"North Caloocan Doctors Hospital","amenity":"hospital"},"geometry":{"type":"Point","coordinates":[121.085,14.76613]}},{"type":"Feature","properties":{"Name":"Dr. Jose N. Rodriguez Memorial Hospital","amenity":"hospital"},"geometry":{"type":"Point","coordinates":[121.065,14.766762]}},{"type":"Feature","properties":{"Name":"Bermudez Polymedic Hospital","amenity":"hospital"},"geometry":{"type":"Point","coordinates":[121.078,14.77006]}},{"type":"Feature","properties":{"Name":"Tala Eradication Center","amenity":"hospital"},"geometry":{"type":"Point","coordinates":[121.078,14.77034]}},{"type":"Feature","properties":{"Name":"Caloocan City North Medical Center","amenity":"hospital"},"geometry":{"type":"Point","coordinates":[121.05,14.756153]}},{"type":"Feature","properties":{"Name":"National Mental Hospital","amenity":"hospital"},"geometry":{"type":"Point","coordinates":[121.043,14.768675]}},{"type":"Feature","properties":{"Name":"Nodado General Hospital","amenity":"hospital"},"geometry":{"type":"Point","coordinates":[121.044,14.763273]}},{"type":"Feature","properties":{"Name":"H-Vill Hospital","amenity":"hospital"},"geometry":{"type":"Point","coordinates":[121.143,14.726748]}},{"type":"Feature","properties":{"Name":"","amenity":"hospital"},"geometry":{"type":"Point","coordinates":[121.153,14.761269]}},{"type":"Feature","properties":{"Name":"Not avcurate","amenity":"hospital"},"geometry":{"type":"Point","coordinates":[121.136,14.746415]}},{"type":"Feature","properties":{"Name":"Montalban Infirmary CCH Birthing Center","amenity":"hospital"},"geometry":{"type":"Point","coordinates":[121.139,14.746353]}},{"type":"Feature","properties":{"Name":"Montalban Infirmary","amenity":"hospital"},"geometry":{"type":"Point","coordinates":[121.139,14.746358]}},{"type":"Feature","properties":{"Name":"Tawiran Public Clinic","amenity":"hospital"},"geometry":{"type":"Point","coordinates":[120.911,14.744504]}},{"type":"Feature","properties":{"Name":"San Pascual Baylon General Hospital","amenity":"hospital"},"geometry":{"type":"Point","coordinates":[120.79,14.837363]}},{"type":"Feature","properties":{"Name":"","amenity":"hospital"},"geometry":{"type":"Point","coordinates":[120.83,14.829329]}},{"type":"Feature","properties":{"Name":"Graman Medical and Maternity Hospital","amenity":"hospital"},"geometry":{"type":"Point","coordinates":[120.835,14.846366]}},{"type":"Feature","properties":{"Name":"EENT Hospital","amenity":"hospital"},"geometry":{"type":"Point","coordinates":[120.823,14.850031]}},{"type":"Feature","properties":{"Name":"Malolos Eye Center","amenity":"hospital"},"geometry":{"type":"Point","coordinates":[120.822,14.850244]}},{"type":"Feature","properties":{"Name":"Malolos Maternity Hospital","amenity":"hospital"},"geometry":{"type":"Point","coordinates":[120.822,14.850174]}},{"type":"Feature","properties":{"Name":"Malolos Maternity Hospital","amenity":"hospital"},"geometry":{"type":"Point","coordinates":[120.822,14.850214]}},{"type":"Feature","properties":{"Name":"Sacred Heart Hospital of Malolos","amenity":"hospital"},"geometry":{"type":"Point","coordinates":[120.818,14.852226]}},{"type":"Feature","properties":{"Name":"Sacred Heart Hospital","amenity":"hospital"},"geometry":{"type":"Point","coordinates":[120.818,14.851995]}},{"type":"Feature","properties":{"Name":"Santos Clinic","amenity":"hospital"},"geometry":{"type":"Point","coordinates":[120.819,14.851879]}},{"type":"Feature","properties":{"Name":"","amenity":"hospital"},"geometry":{"type":"Point","coordinates":[120.819,14.851871]}},{"type":"Feature","properties":{"Name":"Vallarta Dental Care","amenity":"hospital"},"geometry":{"type":"Point","coordinates":[120.813,14.857093]}},{"type":"Feature","properties":{"Name":"Physical Medicine & Rehabilitation Malolos","amenity":"hospital"},"geometry":{"type":"Point","coordinates":[120.812,14.855615]}},{"type":"Feature","properties":{"Name":"Malolos Physical Therapy and Rehabilitation Center","amenity":"hospital"},"geometry":{"type":"Point","coordinates":[120.816,14.85836]}},{"type":"Feature","properties":{"Name":"Bulacan Medical Center","amenity":"hospital"},"geometry":{"type":"Point","coordinates":[120.817,14.858711]}},{"type":"Feature","properties":{"Name":"Malolos Klinika & Laboratorio","amenity":"hospital"},"geometry":{"type":"Point","coordinates":[120.805,14.850479]}},{"type":"Feature","properties":{"Name":"Habilities Center for Intervention (Therapy Center)","amenity":"hospital"},"geometry":{"type":"Point","coordinates":[120.806,14.860514]}},{"type":"Feature","properties":{"Name":"Santos General Hospital","amenity":"hospital"},"geometry":{"type":"Point","coordinates":[120.812,14.840921]}},{"type":"Feature","properties":{"Name":"Conanan ENT Care Clinic","amenity":"hospital"},"geometry":{"type":"Point","coordinates":[120.812,14.841877]}},{"type":"Feature","properties":{"Name":"RUH","amenity":"hospital"},"geometry":{"type":"Point","coordinates":[120.814,14.838561]}},{"type":"Feature","properties":{"Name":"Mary Immaculate Maternity Hospital","amenity":"hospital"},"geometry":{"type":"Point","coordinates":[120.814,14.837767]}},{"type":"Feature","properties":{"Name":"San Roque Hospital","amenity":"hospital"},"geometry":{"type":"Point","coordinates":[120.813,14.84517]}},{"type":"Feature","properties":{"Name":"San Vicente Hospital","amenity":"hospital"},"geometry":{"type":"Point","coordinates":[120.817,14.845679]}},{"type":"Feature","properties":{"Name":"St. Vincent Polyclinic","amenity":"hospital"},"geometry":{"type":"Point","coordinates":[120.814,14.848402]}},{"type":"Feature","properties":{"Name":"St. Micheal Clinic and Maternity Hospital","amenity":"hospital"},"geometry":{"type":"Point","coordinates":[120.814,14.847632]}},{"type":"Feature","properties":{"Name":"Santisima Trinidad General Hospital","amenity":"hospital"},"geometry":{"type":"Point","coordinates":[120.821,14.870931]}},{"type":"Feature","properties":{"Name":"Malolos Veterinary Clinic","amenity":"hospital"},"geometry":{"type":"Point","coordinates":[120.821,14.865675]}},{"type":"Feature","properties":{"Name":"Dr. Ofelia L Mendoza Maternity and General Hospital","amenity":"hospital"},"geometry":{"type":"Point","coordinates":[120.821,14.867435]}},{"type":"Feature","properties":{"Name":"MVC Maternity and Women's Health Care Clinic","amenity":"hospital"},"geometry":{"type":"Point","coordinates":[120.798,14.87521]}},{"type":"Feature","properties":{"Name":"Accucare Diagnostic Center","amenity":"hospital"},"geometry":{"type":"Point","coordinates":[120.797,14.875114]}},{"type":"Feature","properties":{"Name":"Palad Dental Clinic","amenity":"hospital"},"geometry":{"type":"Point","coordinates":[120.797,14.875159]}},{"type":"Feature","properties":{"Name":"Ospital Ng Guiguinto","amenity":"hospital"},"geometry":{"type":"Point","coordinates":[120.891,14.83519]}},{"type":"Feature","properties":{"Name":"Magpoc Maternity Clinic","amenity":"hospital"},"geometry":{"type":"Point","coordinates":[120.867,14.839344]}},{"type":"Feature","properties":{"Name":"Bulacan Polymedic Hospital","amenity":"hospital"},"geometry":{"type":"Point","coordinates":[120.861,14.840884]}},{"type":"Feature","properties":{"Name":"Bulacan Polymedic Hospital","amenity":"hospital"},"geometry":{"type":"Point","coordinates":[120.861,14.84084]}},{"type":"Feature","properties":{"Name":"Doc Rommel Cruz Hospital","amenity":"hospital"},"geometry":{"type":"Point","coordinates":[120.842,14.81107]}},{"type":"Feature","properties":{"Name":"Balagtas Doctors","amenity":"hospital"},"geometry":{"type":"Point","coordinates":[120.904,14.81866]}},{"type":"Feature","properties":{"Name":"Clinica Bulacan","amenity":"hospital"},"geometry":{"type":"Point","coordinates":[120.876,14.796266]}},{"type":"Feature","properties":{"Name":"G H Del Pilar Hospital","amenity":"hospital"},"geometry":{"type":"Point","coordinates":[120.88,14.792874]}},{"type":"Feature","properties":{"Name":"","amenity":"hospital"},"geometry":{"type":"Point","coordinates":[120.88,14.792897]}},{"type":"Feature","properties":{"Name":"Dr. Cabuco hospital","amenity":"hospital"},"geometry":{"type":"Point","coordinates":[120.98,14.826247]}},{"type":"Feature","properties":{"Name":"Mateo Diagnostic Hospital","amenity":"hospital"},"geometry":{"type":"Point","coordinates":[120.948,14.80944]}},{"type":"Feature","properties":{"Name":"Bulacan Memorial Medical Group Hospital","amenity":"hospital"},"geometry":{"type":"Point","coordinates":[120.945,14.80867]}},{"type":"Feature","properties":{"Name":"","amenity":"hospital"},"geometry":{"type":"Point","coordinates":[120.952,14.823438]}},{"type":"Feature","properties":{"Name":"Mendoza General Hospital","amenity":"hospital"},"geometry":{"type":"Point","coordinates":[120.963,14.821198]}},{"type":"Feature","properties":{"Name":"Mt. Carmel Hospital","amenity":"hospital"},"geometry":{"type":"Point","coordinates":[120.933,14.784264]}},{"type":"Feature","properties":{"Name":"Dr. Yanga General Hospital","amenity":"hospital"},"geometry":{"type":"Point","coordinates":[120.925,14.796351]}},{"type":"Feature","properties":{"Name":"St. Paul Hospital","amenity":"hospital"},"geometry":{"type":"Point","coordinates":[120.929,14.795617]}},{"type":"Feature","properties":{"Name":"Kairos General Hospital","amenity":"hospital"},"geometry":{"type":"Point","coordinates":[121.035,14.803065]}},{"type":"Feature","properties":{"Name":"Grace General Hospital","amenity":"hospital"},"geometry":{"type":"Point","coordinates":[121.068,14.80593]}},{"type":"Feature","properties":{"Name":"Grace General Hospital","amenity":"hospital"},"geometry":{"type":"Point","coordinates":[121.068,14.805826]}},{"type":"Feature","properties":{"Name":"","amenity":"hospital"},"geometry":{"type":"Point","coordinates":[121.077,14.788642]}},{"type":"Feature","properties":{"Name":"Qualimed","amenity":"hospital"},"geometry":{"type":"Point","coordinates":[121.077,14.788205]}},{"type":"Feature","properties":{"Name":"Skyline Hospital and Medical Center","amenity":"hospital"},"geometry":{"type":"Point","coordinates":[121.07,14.79796]}},{"type":"Feature","properties":{"Name":"Skyline Hospital and Medical Center","amenity":"hospital"},"geometry":{"type":"Point","coordinates":[121.071,14.798398]}},{"type":"Feature","properties":{"Name":"Klinika Tomasino","amenity":"hospital"},"geometry":{"type":"Point","coordinates":[121.093,14.844028]}},{"type":"Feature","properties":{"Name":"Novado Gen Hospital","amenity":"hospital"},"geometry":{"type":"Point","coordinates":[121.085,14.858249]}},{"type":"Feature","properties":{"Name":"Roquero hospital","amenity":"hospital"},"geometry":{"type":"Point","coordinates":[121.056,14.854198]}},{"type":"Feature","properties":{"Name":"Dr. Eduardo V. Roquero Memorial Hospital","amenity":"hospital"},"geometry":{"type":"Point","coordinates":[121.056,14.85421]}},{"type":"Feature","properties":{"Name":"Fatima University Medical Center","amenity":"hospital"},"geometry":{"type":"Point","coordinates":[121.152,14.619256]}},{"type":"Feature","properties":{"Name":"Diabetes Center","amenity":"hospital"},"geometry":{"type":"Point","coordinates":[121.125,14.655168]}},{"type":"Feature","properties":{"Name":"De Guzman Clinic","amenity":"hospital"},"geometry":{"type":"Point","coordinates":[121.107,14.65705]}},{"type":"Feature","properties":{"Name":"Tumana Lying In Hospital","amenity":"hospital"},"geometry":{"type":"Point","coordinates":[121.103,14.653152]}},{"type":"Feature","properties":{"Name":"Tumana Health Center & Lying In","amenity":"hospital"},"geometry":{"type":"Point","coordinates":[121.102,14.653471]}},{"type":"Feature","properties":{"Name":"St. Vincent Hospital","amenity":"hospital"},"geometry":{"type":"Point","coordinates":[121.108,14.65097]}},{"type":"Feature","properties":{"Name":"Garcia General Hospital","amenity":"hospital"},"geometry":{"type":"Point","coordinates":[121.111,14.65127]}},{"type":"Feature","properties":{"Name":"Santa Monica Hospital","amenity":"hospital"},"geometry":{"type":"Point","coordinates":[121.086,14.633835]}},{"type":"Feature","properties":{"Name":"P. Gonzales Memorial Hospital","amenity":"hospital"},"geometry":{"type":"Point","coordinates":[121.098,14.649162]}},{"type":"Feature","properties":{"Name":"St. Victoria hospital","amenity":"hospital"},"geometry":{"type":"Point","coordinates":[121.095,14.642238]}},{"type":"Feature","properties":{"Name":"VT Maternity Hospital","amenity":"hospital"},"geometry":{"type":"Point","coordinates":[121.099,14.637154]}},{"type":"Feature","properties":{"Name":"Amang Rodriguez Memorial Medical Center","amenity":"hospital"},"geometry":{"type":"Point","coordinates":[121.098,14.636103]}},{"type":"Feature","properties":{"Name":"Saint Anthony Medical Center","amenity":"hospital"},"geometry":{"type":"Point","coordinates":[121.103,14.624574]}},{"type":"Feature","properties":{"Name":"San Ramon Hospital","amenity":"hospital"},"geometry":{"type":"Point","coordinates":[121.117,14.644143]}},{"type":"Feature","properties":{"Name":"Marikina Valley Medical Center","amenity":"hospital"},"geometry":{"type":"Point","coordinates":[121.104,14.634962]}},{"type":"Feature","properties":{"Name":"","amenity":"hospital"},"geometry":{"type":"Point","coordinates":[121.11,14.635583]}},{"type":"Feature","properties":{"Name":"Jesus Immaculate Concepcion Hospital","amenity":"hospital"},"geometry":{"type":"Point","coordinates":[121.109,14.638366]}},{"type":"Feature","properties":{"Name":"SDS Medical Center","amenity":"hospital"},"geometry":{"type":"Point","coordinates":[121.11,14.639421]}},{"type":"Feature","properties":{"Name":"Antipolo General Hospital","amenity":"hospital"},"geometry":{"type":"Point","coordinates":[121.124,14.629342]}},{"type":"Feature","properties":{"Name":"Metro Antipolo Hospital and Medical Center","amenity":"hospital"},"geometry":{"type":"Point","coordinates":[121.118,14.624577]}},{"type":"Feature","properties":{"Name":"Cornel Medical Center","amenity":"hospital"},"geometry":{"type":"Point","coordinates":[121.122,14.625443]}},{"type":"Feature","properties":{"Name":"Arnaiz Hospital","amenity":"hospital"},"geometry":{"type":"Point","coordinates":[121.103,14.612724]}},{"type":"Feature","properties":{"Name":"Saint Cristiana Hospital, Pasig City","amenity":"hospital"},"geometry":{"type":"Point","coordinates":[121.104,14.604699]}},{"type":"Feature","properties":{"Name":"Saint Christiana Hospital","amenity":"hospital"},"geometry":{"type":"Point","coordinates":[121.103,14.603923]}},{"type":"Feature","properties":{"Name":"Holylife hospital quezon ave.","amenity":"hospital"},"geometry":{"type":"Point","coordinates":[121.095,14.591998]}},{"type":"Feature","properties":{"Name":"Holylife Hospital","amenity":"hospital"},"geometry":{"type":"Point","coordinates":[121.095,14.592023]}},{"type":"Feature","properties":{"Name":"Mission Hospital","amenity":"hospital"},"geometry":{"type":"Point","coordinates":[121.098,14.589908]}},{"type":"Feature","properties":{"Name":"Mission Medical Plaza","amenity":"hospital"},"geometry":{"type":"Point","coordinates":[121.098,14.589825]}},{"type":"Feature","properties":{"Name":"Salve Regina Hospital","amenity":"hospital"},"geometry":{"type":"Point","coordinates":[121.096,14.620026]}},{"type":"Feature","properties":{"Name":"St. Camillus Polyclinic","amenity":"hospital"},"geometry":{"type":"Point","coordinates":[121.092,14.612163]}},{"type":"Feature","properties":{"Name":"UP Health Service","amenity":"hospital"},"geometry":{"type":"Point","coordinates":[121.071,14.659893]}},{"type":"Feature","properties":{"Name":"General Malvar Hospital","amenity":"hospital"},"geometry":{"type":"Point","coordinates":[121.073,14.667598]}},{"type":"Feature","properties":{"Name":"NEGH Annex Building","amenity":"hospital"},"geometry":{"type":"Point","coordinates":[121.066,14.664308]}},{"type":"Feature","properties":{"Name":"F.Y. Manalo Medical Foundation Inc.","amenity":"hospital"},"geometry":{"type":"Point","coordinates":[121.068,14.664304]}},{"type":"Feature","properties":{"Name":"","amenity":"hospital"},"geometry":{"type":"Point","coordinates":[121.067,14.664146]}},{"type":"Feature","properties":{"Name":"New Era General Hospital","amenity":"hospital"},"geometry":{"type":"Point","coordinates":[121.067,14.664245]}},{"type":"Feature","properties":{"Name":"San Mateo Doctors","amenity":"hospital"},"geometry":{"type":"Point","coordinates":[121.118,14.693837]}},{"type":"Feature","properties":{"Name":"Casimiro A. Ynares Sr. Memorial Hospital","amenity":"hospital"},"geometry":{"type":"Point","coordinates":[121.135,14.714559]}},{"type":"Feature","properties":{"Name":"San Mateo Medical Center","amenity":"hospital"},"geometry":{"type":"Point","coordinates":[121.116,14.685311]}},{"type":"Feature","properties":{"Name":"Vetsmart Animal Clinic","amenity":"hospital"},"geometry":{"type":"Point","coordinates":[121.111,14.677826]}},{"type":"Feature","properties":{"Name":"St. Mattheus Hospital","amenity":"hospital"},"geometry":{"type":"Point","coordinates":[121.11,14.673797]}},{"type":"Feature","properties":{"Name":"","amenity":"hospital"},"geometry":{"type":"Point","coordinates":[121.366,14.539234]}},{"type":"Feature","properties":{"Name":"Antipolo Hospital System","amenity":"hospital"},"geometry":{"type":"Point","coordinates":[121.228,14.633774]}},{"type":"Feature","properties":{"Name":"Ynares Community Hospital","amenity":"hospital"},"geometry":{"type":"Point","coordinates":[121.306,14.48167]}},{"type":"Feature","properties":{"Name":"St. Therese Hopital","amenity":"hospital"},"geometry":{"type":"Point","coordinates":[121.22,14.547769]}},{"type":"Feature","properties":{"Name":"Queen Mary Help of Christians Hospital","amenity":"hospital"},"geometry":{"type":"Point","coordinates":[121.234,14.491024]}},{"type":"Feature","properties":{"Name":"Rizal Provincial Hospital","amenity":"hospital"},"geometry":{"type":"Point","coordinates":[121.239,14.516563]}},{"type":"Feature","properties":{"Name":"Morong Doctors Hospital","amenity":"hospital"},"geometry":{"type":"Point","coordinates":[121.239,14.51432]}},{"type":"Feature","properties":{"Name":"Ospital ng Baras","amenity":"hospital"},"geometry":{"type":"Point","coordinates":[121.267,14.521532]}},{"type":"Feature","properties":{"Name":"Tanay General Hospital","amenity":"hospital"},"geometry":{"type":"Point","coordinates":[121.29,14.495619]}},{"type":"Feature","properties":{"Name":"Tanay Community Hospital","amenity":"hospital"},"geometry":{"type":"Point","coordinates":[121.284,14.501808]}},{"type":"Feature","properties":{"Name":"Tanay General Hospital","amenity":"hospital"},"geometry":{"type":"Point","coordinates":[121.285,14.499511]}},{"type":"Feature","properties":{"Name":"Crossroads Treatment and Rehabilitation;crossroads Treatment and Rehabilitation Center","amenity":"hospital"},"geometry":{"type":"Point","coordinates":[121.133,14.548069]}},{"type":"Feature","properties":{"Name":"Binangonan Lakeview Hospital","amenity":"hospital"},"geometry":{"type":"Point","coordinates":[121.17,14.502522]}},{"type":"Feature","properties":{"Name":"Pag-Asa Hospital","amenity":"hospital"},"geometry":{"type":"Point","coordinates":[121.156,14.520585]}},{"type":"Feature","properties":{"Name":"Angono Medics Hospital","amenity":"hospital"},"geometry":{"type":"Point","coordinates":[121.153,14.531323]}},{"type":"Feature","properties":{"Name":"san isidro hospital","amenity":"hospital"},"geometry":{"type":"Point","coordinates":[121.153,14.525722]}},{"type":"Feature","properties":{"Name":"rizal provincial hospital","amenity":"hospital"},"geometry":{"type":"Point","coordinates":[121.152,14.526703]}},{"type":"Feature","properties":{"Name":"Angono General Hospital","amenity":"hospital"},"geometry":{"type":"Point","coordinates":[121.152,14.526688]}},{"type":"Feature","properties":{"Name":"","amenity":"hospital"},"geometry":{"type":"Point","coordinates":[121.154,14.527643]}},{"type":"Feature","properties":{"Name":"mikko medics","amenity":"hospital"},"geometry":{"type":"Point","coordinates":[121.154,14.527476]}},{"type":"Feature","properties":{"Name":"manila east medical center","amenity":"hospital"},"geometry":{"type":"Point","coordinates":[121.144,14.574098]}},{"type":"Feature","properties":{"Name":"Rizal Provincial Hospital System","amenity":"hospital"},"geometry":{"type":"Point","coordinates":[121.18,14.619361]}},{"type":"Feature","properties":{"Name":"Clinica Antipolo Hospital and Wellness Center","amenity":"hospital"},"geometry":{"type":"Point","coordinates":[121.17,14.589498]}},{"type":"Feature","properties":{"Name":"Soriano Leyble Medical & Maternity Hospital","amenity":"hospital"},"geometry":{"type":"Point","coordinates":[121.177,14.5884]}},{"type":"Feature","properties":{"Name":"City Health Office","amenity":"hospital"},"geometry":{"type":"Point","coordinates":[121.174,14.585727]}},{"type":"Feature","properties":{"Name":"Acop Medical Clinic","amenity":"hospital"},"geometry":{"type":"Point","coordinates":[121.171,14.581782]}},{"type":"Feature","properties":{"Name":"Unciano Medical Center","amenity":"hospital"},"geometry":{"type":"Point","coordinates":[121.172,14.580097]}},{"type":"Feature","properties":{"Name":"Antipolo City Community Hospital Annex","amenity":"hospital"},"geometry":{"type":"Point","coordinates":[121.186,14.578195]}},{"type":"Feature","properties":{"Name":"Antipolo Doctors Hospital","amenity":"hospital"},"geometry":{"type":"Point","coordinates":[121.177,14.57434]}},{"type":"Feature","properties":{"Name":"Rizal Provincial Hospital - Binangonan","amenity":"hospital"},"geometry":{"type":"Point","coordinates":[121.186,14.488924]}},{"type":"Feature","properties":{"Name":"Binangonan Medical Hospital","amenity":"hospital"},"geometry":{"type":"Point","coordinates":[121.191,14.462681]}},{"type":"Feature","properties":{"Name":"Binangonan Medical Hospital","amenity":"hospital"},"geometry":{"type":"Point","coordinates":[121.192,14.462594]}},{"type":"Feature","properties":{"Name":"Binangonan Medical Hospital","amenity":"hospital"},"geometry":{"type":"Point","coordinates":[121.192,14.462589]}},{"type":"Feature","properties":{"Name":"","amenity":"hospital"},"geometry":{"type":"Point","coordinates":[120.627,14.266422]}},{"type":"Feature","properties":{"Name":"Cavite Municipal Hospital","amenity":"hospital"},"geometry":{"type":"Point","coordinates":[120.734,14.277579]}},{"type":"Feature","properties":{"Name":"Naic Medicare Hospital","amenity":"hospital"},"geometry":{"type":"Point","coordinates":[120.776,14.327314]}},{"type":"Feature","properties":{"Name":"Naic Rural Health Unit","amenity":"hospital"},"geometry":{"type":"Point","coordinates":[120.764,14.319026]}},{"type":"Feature","properties":{"Name":"Naic Doctors Hospital","amenity":"hospital"},"geometry":{"type":"Point","coordinates":[120.771,14.314569]}},{"type":"Feature","properties":{"Name":"San Lorenzo Ruiz Hospital","amenity":"hospital"},"geometry":{"type":"Point","coordinates":[120.772,14.316782]}},{"type":"Feature","properties":{"Name":"Manuel V. Santiago Medical Center","amenity":"hospital"},"geometry":{"type":"Point","coordinates":[120.866,14.294178]}},{"type":"Feature","properties":{"Name":"General Emilio Aguinaldo Memorial Hospital","amenity":"hospital"},"geometry":{"type":"Point","coordinates":[120.87,14.275753]}},{"type":"Feature","properties":{"Name":"Provincial Center for Mental Health","amenity":"hospital"},"geometry":{"type":"Point","coordinates":[120.869,14.277168]}},{"type":"Feature","properties":{"Name":"ERS Clinic","amenity":"hospital"},"geometry":{"type":"Point","coordinates":[120.87,14.277608]}},{"type":"Feature","properties":{"Name":"Metropolitan Medical Center - Nasugbu","amenity":"hospital"},"geometry":{"type":"Point","coordinates":[120.842,14.063094]}},{"type":"Feature","properties":{"Name":"DLSU Memorial Hospital","amenity":"hospital"},"geometry":{"type":"Point","coordinates":[120.855,14.141725]}},{"type":"Feature","properties":{"Name":"","amenity":"hospital"},"geometry":{"type":"Point","coordinates":[120.854,14.141669]}},{"type":"Feature","properties":{"Name":"M.V. Santiago Medical and Diagnostic Center","amenity":"hospital"},"geometry":{"type":"Point","coordinates":[120.877,14.196955]}},{"type":"Feature","properties":{"Name":"Dayrit Derma Clinic","amenity":"hospital"},"geometry":{"type":"Point","coordinates":[120.976,14.245818]}},{"type":"Feature","properties":{"Name":"Balalta Hospital","amenity":"hospital"},"geometry":{"type":"Point","coordinates":[120.973,14.219065]}},{"type":"Feature","properties":{"Name":"Silang Doctors Hospital","amenity":"hospital"},"geometry":{"type":"Point","coordinates":[120.974,14.227979]}},{"type":"Feature","properties":{"Name":"Geuvara's Clinic","amenity":"hospital"},"geometry":{"type":"Point","coordinates":[120.972,14.222303]}},{"type":"Feature","properties":{"Name":"Estrella Hospital","amenity":"hospital"},"geometry":{"type":"Point","coordinates":[120.969,14.224602]}},{"type":"Feature","properties":{"Name":"Velazco Hospital","amenity":"hospital"},"geometry":{"type":"Point","coordinates":[120.977,14.234516]}},{"type":"Feature","properties":{"Name":"Silang Specialists Medical Center","amenity":"hospital"},"geometry":{"type":"Point","coordinates":[120.973,14.234676]}},{"type":"Feature","properties":{"Name":"Toledo Hospital","amenity":"hospital"},"geometry":{"type":"Point","coordinates":[120.956,14.143333]}},{"type":"Feature","properties":{"Name":"South Prime Medical","amenity":"hospital"},"geometry":{"type":"Point","coordinates":[120.931,14.184114]}},{"type":"Feature","properties":{"Name":"Manipis Lying-In and Maternity Clinic","amenity":"hospital"},"geometry":{"type":"Point","coordinates":[120.96,14.172396]}},{"type":"Feature","properties":{"Name":"","amenity":"hospital"},"geometry":{"type":"Point","coordinates":[120.96,14.12049]}},{"type":"Feature","properties":{"Name":"Skin Station","amenity":"hospital"},"geometry":{"type":"Point","coordinates":[120.962,14.114811]}},{"type":"Feature","properties":{"Name":"Tagaytay Medical Center","amenity":"hospital"},"geometry":{"type":"Point","coordinates":[120.961,14.1156]}},{"type":"Feature","properties":{"Name":"Unihealth-Tagaytay Medical Center","amenity":"hospital"},"geometry":{"type":"Point","coordinates":[120.961,14.115445]}},{"type":"Feature","properties":{"Name":"DOH Treatment and Rehabilitation Center","amenity":"hospital"},"geometry":{"type":"Point","coordinates":[120.94,14.101881]}},{"type":"Feature","properties":{"Name":"Ospital ng Tagaytay","amenity":"hospital"},"geometry":{"type":"Point","coordinates":[120.94,14.099265]}},{"type":"Feature","properties":{"Name":"A.U.P. Health Service","amenity":"hospital"},"geometry":{"type":"Point","coordinates":[121.038,14.219068]}},{"type":"Feature","properties":{"Name":"Sta. Rosa Hospital & Medical Center","amenity":"hospital"},"geometry":{"type":"Point","coordinates":[121.096,14.286935]}},{"type":"Feature","properties":{"Name":"QualiMed Hospital - Sta. Rosa","amenity":"hospital"},"geometry":{"type":"Point","coordinates":[121.053,14.232145]}},{"type":"Feature","properties":{"Name":"FortMED - Santa Rosa","amenity":"hospital"},"geometry":{"type":"Point","coordinates":[121.068,14.249622]}},{"type":"Feature","properties":{"Name":"The Medical City South Luzon","amenity":"hospital"},"geometry":{"type":"Point","coordinates":[121.067,14.248555]}},{"type":"Feature","properties":{"Name":"General Mariano Alvarez Hospital","amenity":"hospital"},"geometry":{"type":"Point","coordinates":[121.006,14.296911]}},{"type":"Feature","properties":{"Name":"San Jose Hospital and Medical Center","amenity":"hospital"},"geometry":{"type":"Point","coordinates":[120.996,14.284791]}},{"type":"Feature","properties":{"Name":"Carmona Hospital and Medical Center","amenity":"hospital"},"geometry":{"type":"Point","coordinates":[121.052,14.314528]}},{"type":"Feature","properties":{"Name":"Pagamutang Bayan ng Carmona","amenity":"hospital"},"geometry":{"type":"Point","coordinates":[121.058,14.313341]}},{"type":"Feature","properties":{"Name":"Gamez Hospital","amenity":"hospital"},"geometry":{"type":"Point","coordinates":[121.164,14.212959]}},{"type":"Feature","properties":{"Name":"Calamba Doctors Hospital","amenity":"hospital"},"geometry":{"type":"Point","coordinates":[121.142,14.21714]}},{"type":"Feature","properties":{"Name":"Pamana Medical Center","amenity":"hospital"},"geometry":{"type":"Point","coordinates":[121.162,14.198364]}},{"type":"Feature","properties":{"Name":"Jose Rizal Memorial District Hospital","amenity":"hospital"},"geometry":{"type":"Point","coordinates":[121.168,14.191587]}},{"type":"Feature","properties":{"Name":"Calamba Medical Center","amenity":"hospital"},"geometry":{"type":"Point","coordinates":[121.153,14.206495]}},{"type":"Feature","properties":{"Name":"St. John The Baptist Medical Center","amenity":"hospital"},"geometry":{"type":"Point","coordinates":[121.157,14.211897]}},{"type":"Feature","properties":{"Name":"San Jose Hospital and Medical Center","amenity":"hospital"},"geometry":{"type":"Point","coordinates":[121.128,14.211435]}},{"type":"Feature","properties":{"Name":"Global Medical Center Canlubang","amenity":"hospital"},"geometry":{"type":"Point","coordinates":[121.114,14.211771]}},{"type":"Feature","properties":{"Name":"Global Medical Center of Laguna","amenity":"hospital"},"geometry":{"type":"Point","coordinates":[121.135,14.233389]}},{"type":"Feature","properties":{"Name":"UPLB University Health Service","amenity":"hospital"},"geometry":{"type":"Point","coordinates":[121.238,14.162599]}},{"type":"Feature","properties":{"Name":"Health Serv Los Baños Medical Center","amenity":"hospital"},"geometry":{"type":"Point","coordinates":[121.241,14.179204]}},{"type":"Feature","properties":{"Name":"St. Jude Family Hospital","amenity":"hospital"},"geometry":{"type":"Point","coordinates":[121.244,14.17333]}},{"type":"Feature","properties":{"Name":"Los Baños Doctors Hospital and Medical Center","amenity":"hospital"},"geometry":{"type":"Point","coordinates":[121.243,14.170802]}},{"type":"Feature","properties":{"Name":"Pagamutang Pangmasa ng Laguna","amenity":"hospital"},"geometry":{"type":"Point","coordinates":[121.274,14.178837]}},{"type":"Feature","properties":{"Name":"Global Care Medical Center of Bay","amenity":"hospital"},"geometry":{"type":"Point","coordinates":[121.273,14.177135]}},{"type":"Feature","properties":{"Name":"Balibago Polyclinic","amenity":"hospital"},"geometry":{"type":"Point","coordinates":[121.107,14.297325]}},{"type":"Feature","properties":{"Name":"Binan Doctor's Hospital","amenity":"hospital"},"geometry":{"type":"Point","coordinates":[121.092,14.326003]}},{"type":"Feature","properties":{"Name":"New Sinai MDI Hospital","amenity":"hospital"},"geometry":{"type":"Point","coordinates":[121.099,14.317706]}},{"type":"Feature","properties":{"Name":"Marian Hospital","amenity":"hospital"},"geometry":{"type":"Point","coordinates":[121.1,14.320153]}},{"type":"Feature","properties":{"Name":"Citymedic Hospital","amenity":"hospital"},"geometry":{"type":"Point","coordinates":[121.108,14.316301]}},{"type":"Feature","properties":{"Name":"Santa Rosa Community Hospital","amenity":"hospital"},"geometry":{"type":"Point","coordinates":[121.11,14.318689]}},{"type":"Feature","properties":{"Name":"Perpetual Help Medical Center - Biñan","amenity":"hospital"},"geometry":{"type":"Point","coordinates":[121.085,14.330465]}},{"type":"Feature","properties":{"Name":"Ospital ng Biñan","amenity":"hospital"},"geometry":{"type":"Point","coordinates":[121.074,14.33709]}},{"type":"Feature","properties":{"Name":"Saint James Hospital","amenity":"hospital"},"geometry":{"type":"Point","coordinates":[121.12,14.280944]}},{"type":"Feature","properties":{"Name":"First Cabuyao Hospital and Medical Center","amenity":"hospital"},"geometry":{"type":"Point","coordinates":[121.126,14.266576]}},{"type":"Feature","properties":{"Name":"Hospital ng Cabuyao","amenity":"hospital"},"geometry":{"type":"Point","coordinates":[121.126,14.275733]}},{"type":"Feature","properties":{"Name":"Holy Rosary of Cabuyao Hospital","amenity":"hospital"},"geometry":{"type":"Point","coordinates":[121.124,14.272198]}},{"type":"Feature","properties":{"Name":"St. Andrew Hospital","amenity":"hospital"},"geometry":{"type":"Point","coordinates":[121.026,14.093385]}},{"type":"Feature","properties":{"Name":"municipal health center and birthing home","amenity":"hospital"},"geometry":{"type":"Point","coordinates":[121.021,14.093285]}},{"type":"Feature","properties":{"Name":"Sampaloc Community Hospital","amenity":"hospital"},"geometry":{"type":"Point","coordinates":[121.635,14.162114]}},{"type":"Feature","properties":{"Name":"Polymedical Taal","amenity":"hospital"},